province,district,facility_label,name,HMIS_Code,location,ownership,facility_type,operational_stutus,catchment_population,longitude,latitude
Central,Chibombo,Chamakubi HP, Chamakubi Health Post,101039,Rural,GRZ,Health Post,Yes,,27.64199073,-14.79990288
Central,Chibombo,Chibombo RHC, Chibombo Rural Health Centre,101010,Rural,GRZ,Rural Health Centre,Yes,,28.07594009,-14.6638325
Central,Chibombo,Chikobo RHC, Chikobo Rural Health Centre,101011,Rural,GRZ,Rural Health Centre,Yes,,28.05468418,-14.77719348
Central,Chibombo,Chipeso RHC, Chipeso Rural Health Centre,101013,Rural,GRZ,Urban Health Centre,Yes,,27.99719322,-15.1962087
Central,Chibombo,Chitanda RHC,Chitanda Rural Health Centre,101016,Rural,GRZ,Rural Health Centre,Yes,,27.59347921,-14.63709401
Central,Chibombo,Golden Valley RHC,Golden Valley Rural Health Centre,101017,Rural,GRZ,Rural Health Centre,Yes,,28.09350648,-14.96925977
Central,Chibombo,Ipongo RHC, Ipongo Rural Health Centre,101018,Rural,GRZ,Rural Health Centre,Yes,,27.2893349,-14.57398766
Central,Chibombo,Itumbwe HP, Itumbwe Health Post,101041,Rural,GRZ,Health Post,Yes,,27.13428738,-14.50490159
Central,Chibombo,Kabangalala RHC, Kabangalala Rural Health Centre,101019,Rural,GRZ,Rural Health Centre,Yes,,27.72865541,-15.16894184
Central,Chibombo,Kamaila HP, Kamaila Health Post,101045,Rural,GRZ,Health Post,Yes,,28.30933084,-15.09634356
Central,Chibombo,Kanwanjiba HP, Kanwanjiba Health Post,101044,Rural,GRZ,Health Post,Yes,,27.81432343,-15.14574924
Central,Chibombo,Kaparu RHC, Kaparu Rural Health Centre,101020,Rural,GRZ,Rural Health Centre,Yes,,27.75370533,-14.97392179
Central,Chibombo,Kapopo HP,Kapopo Health Post,101046,Rural,GRZ,Health Post,Yes,,28.19412801,-15.26929144
Central,Chibombo,Kayosha RHC, Kayosha Rural Health Centre,101021,Peri-Urban,GRZ,Urban Health Centre,Yes,,28.23740849,-15.20378118
Central,Chibombo,Keembe RHC, Keembe Rural Health Centre,101022,Rural,GRZ,Rural Health Centre,Yes,,27.78020143,-14.90235851
Central,Chibombo,Makoka RHC, Makoka Rural Health Centre,101042,Rural,GRZ,Health Post,Yes,,27.77679665,-14.69138599
Central,Chibombo,Malambanyama RHC, Malambanyama Rural Health Centre,101023,Rural,GRZ,Rural Health Centre,Yes,,27.70253403,-14.86239338
Central,Chibombo,Manyana RHC,Manyana RHC,101048,Rural,GRZ,Rural Health Centre,Yes,,27.70253403,-14.86239338
Central,Chibombo,Mboshya RHC, Mboshya Rural Health Centre,101024,Rural,GRZ,Rural Health Centre,Yes,,27.86927096,-15.2314023
Central,Chibombo,Mungule RHC, Mungule Rural Health Centre,101026,Rural,GRZ,Rural Health Centre,Yes,,28.1562031,-15.218054
Central,Chibombo,Muntemba RHC, Muntemba Rural Health Centre,101040,Rural,GRZ,Rural Health Centre,Yes,,27.82906911,-15.00362378
Central,Chibombo,Musopelo UHC,Musopelo UHC,101050,Rural,GRZ,Urban Health Centre,Yes,,28.08468146,-15.26253179
Central,Chibombo,Mwachisompola Demo Zone, Mwachisompola Demo Zone,101028,Rural,GRZ,Rural Health Centre,Yes,,27.95424229,-14.91099941
Central,Chibombo,Mwachisompola RHC, Mwachisompola Rural Health Centre,101029,Rural,GRZ,Rural Health Centre,Yes,,27.9919851,-14.90569567
Central,Chibombo,Mwanjuni HP, Mwanjuni Health Post,101037,Rural,GRZ,Health Post,Yes,,28.26882333,-15.26084944
Central,Chibombo,Mwerebi - Keembe Ranch, Mwelebi Keembe Health Post,101047,Rural,GRZ,Health Post,Yes,,27.59970757,-14.88015627
Central,Chibombo,Naluyanda RHC, Naluyanda Rural Health Centre,101030,Rural,GRZ,Rural Health Centre,Yes,,28.19852833,-15.30732167
Central,Chibombo,Namayani HP, Namayani Health Post,101038,Rural,GRZ,Health Post,Yes,,27.94662154,-15.24347156
Central,Chibombo,Shifwankula HP, Shifwankula Health Post,101043,Rural,GRZ,Health Post,Yes,,28.25896833,-15.31165833
Central,Chibombo,Shimukuni RHC, Shimukuni Rural Health Centre,101031,Rural,GRZ,Rural Health Centre,Yes,,27.90300738,-14.76739559
Central,Chibombo,Twalumba RHC, Twalumba Rural Health Centre,101032,Rural,Faith Based,Rural Health Centre,Yes,,28.13944294,-14.99738289
Central,Chisamba,Chikonkomene HP, Chikonkomene Health Post,1012110,Rural,GRZ,Rural Health Centre,Yes,,28.55032583,-14.6798013
Central,Chisamba,Chipembi RHC, Chipembi Rural Health Centre,1012111,Rural,GRZ,Rural Health Centre,Yes,,28.5758404,-14.9323349
Central,Chisamba,Chisamba RHC, Chisamba Rural Health Centre,1012112,Rural,GRZ,Rural Health Centre,Yes,,28.3771939,-14.98342952
Central,Chisamba,Kachele HP, Kachele Health Post,1012222,Rural,GRZ,Health Post,Yes,,28.19205596,-14.76624426
Central,Chisamba,Kanakantapa RHC, Kanakantapa Rural Health Centre,1012219,Rural,GRZ,Rural Health Centre,Yes,,28.59804398,-15.14267748
Central,Chisamba,Kasosolo HP, Kasosolo Health Post,1012221,Rural,GRZ,Health Post,Yes,,28.72988276,-14.48346722
Central,Chisamba,Lifwambula RHC,Lifwambula RHC,1012224,Rural,Private,Rural Health Centre,Yes,,28.57606219,-14.76444272
Central,Chisamba,Liteta District Hospital, Liteta District Hospital,1012220,Rural,GRZ,Level 1 Hospital District,Yes,,28.06305409,-14.78047613
Central,Chisamba,Liteta HAHC, Liteta HAHC,1012001,Rural,GRZ,Rural Health Centre,Yes,,28.06301564,-14.78048755
Central,Chisamba,Malombe RHC, Malombe Rural Health Centre,1012115,Rural,GRZ,Rural Health Centre,Yes,,28.1885479,-14.67870777
Central,Chisamba,Momboshi HP, Momboshi Health post,1012116,Rural,GRZ,Health Post,Yes,,28.3615324,-14.78849295
Central,Chisamba,Mulungushi Agro RHC, Mulungushi Agro Rural Health Centre,1012117,Rural,GRZ,Rural Health Centre,Yes,,28.802055,-14.66049833
Central,Chisamba,Muswishi RHC, Muswishi Rural Health Centre,1012113,Rural,GRZ,Rural Health Centre,Yes,,28.66266021,-14.55653711
Central,Chisamba,Mwantaya HP, Mwantaya Health Post,1012223,Rural,GRZ,Health Post,Yes,,28.73648488,-14.85115785
Central,Chisamba,Mwapula HP, Mwapula Health Post,1012118,Rural,GRZ,Health Post,Yes,,28.75167934,-15.12262769
Central,Chitambo,Chalilo RHC, Chalilo Rural Health Centre,106024,Rural,GRZ,Rural Health Centre,Yes,7918,30.3520426,-12.46252494
Central,Chitambo,Chipundu RHC, Chipundu Rural Health Centre,106011,Rural,GRZ,Health Post,Yes,61660,30.30184455,-12.30490718
Central,Chitambo,Chitambo District Hospital, Chitambo District Hospital,106099,Rural,GRZ,Level 1 Hospital District,Yes,8113,30.63563545,-12.91568577
Central,Chitambo,Chitambo HAHC, Chitambo Hospital Affiliated Health Centre,106089,Rural,GRZ,Rural Health Centre,Yes,8113,30.63487229,-12.91609285
Central,Chitambo,Gibson RHC, Gibson Rural Health Centre,106026,Rural,GRZ,Rural Health Centre,Yes,13813,30.13227791,-12.20044773
Central,Chitambo,Kafinda HP, Kafinda Health Post,106030,Rural,GRZ,Health Post,Yes,2207,30.39274042,-12.6083442
Central,Chitambo,Mapepala RHC, Mapepala Rural Health Centre,106019,Rural,GRZ,Rural Health Centre,Yes,6504,30.13527316,-12.69625314
Central,Chitambo,Mpelembe RHC, Mpelembe Rural Health Centre,106021,Rural,GRZ,Rural Health Centre,Yes,14883,30.16526731,-12.35162182
Central,Chitambo,Muchinka RHC, Muchinka Rural Health Centre,106022,Rural,GRZ,Rural Health Centre,Yes,6166,30.4400436,-12.9373007
Central,Chitambo,Mulaushi HP, Mulaushi Health Post,106028,Rural,GRZ,Health Post,Yes,2207,30.41166902,-12.72657111
Central,Chitambo,Nakatambo RHC, Nakatambo Rural Health Centre,106031,Rural,GRZ,Rural Health Centre,Yes,1558,30.7743028,-12.8527104
Central,Chitambo,Yoram Mwanje HP, Yoramu Mwanje Health Post,106027,Rural,GRZ,Rural Health Centre,Yes,4933,30.3267678,-12.80255344
Central,Itezhi tezhi,Bushinga Rural HP, Bushinga Rural Health Post,8030210,Rural,GRZ,Health Post,Yes,12000,26.05645004,-15.58374765
Central,Itezhi tezhi,Buunga HP, Buunga Health Post,803021,Rural,GRZ,Health Post,Yes,7500,26.25833827,-15.72035205
Central,Itezhi tezhi,Chishila Rural HP, Chishila Rural Health Post,8030991,Rural,GRZ,Health Post,Yes,2514,26.45243125,-15.66171159
Central,Itezhi tezhi,Itezhi-Tezhi District Hospital, Itezhi-Tezhi District Hospital,8030010,Rural,GRZ,Level 1 Hospital District,Yes,96688,26.02657771,-15.73830824
Central,Itezhi tezhi,Itumbi HP, Itumbi Rural Health Post,8030133,Rural,GRZ,Health Post,Yes,2901,26.02075072,-15.50307713
Central,Itezhi tezhi,Kaanzwa RHC, Kaanzwa Rural Health Centre,8030100,Rural,GRZ,Rural Health Centre,Yes,2901,26.10726642,-15.65169849
Central,Itezhi tezhi,Kampumba RHC, Nanzhila Rural Health Centre,8030130,Rural,GRZ,Rural Health Centre,Yes,,26.08728143,-16.07630206
Central,Itezhi tezhi,Kapiri Mposhi District Hospitale, Basanga Rural Health Centre,8030120,Rural,GRZ,Rural Health Centre,Yes,,26.09370973,-15.90006199
Central,Itezhi tezhi,Kapiri UHC, Banamwaze Rural Health Centre,8030180,Rural,GRZ,Rural Health Centre,Yes,,26.59011761,-15.63480391
Central,Itezhi tezhi,Likumbi HP, Ngoma Health Centre,8030110,Rural,GRZ,Rural Health Centre,Yes,,25.95395659,-15.9119805
Central,Itezhi tezhi,Lukomba HP, Lubanda Rural Health Centre,8030150,Rural,GRZ,Rural Health Centre,Yes,,26.37638649,-15.68907227
Central,Itezhi tezhi,Makuzu HP, Makuzu Rurral Health Post,8030132,Rural,GRZ,Health Post,Yes,,26.11557242,-15.97371025
Central,Itezhi tezhi,Masasabi HP, Masasabi Health Post,803022,Rural,GRZ,Health Post,Yes,4834,26.15499656,-15.65868182
Central,Itezhi tezhi,Masemu UHC, Masemu Urban Health Centre,8030990,Rural,GRZ,Rural Health Centre,Yes,25000,26.03320686,-15.73984269
Central,Itezhi tezhi,Mutenda HP, Mutenda Rural Health Post,8030134,Rural,GRZ,Health Post,Yes,2901,26.14423377,-15.4489242
Central,Itezhi tezhi,Muunga RHC, Muunga Rural Health Centre,8030190,Rural,GRZ,Rural Health Centre,Yes,3868,26.97916767,-15.36355962
Central,Itezhi tezhi,Nansenga RHC, Nansenga Rural Health Centre,8030170,Rural,GRZ,Rural Health Centre,Yes,,26.78949228,-15.39517767
Central,Kabwe,Central Police Hq Clinic,Central Police Hq Clinic,102045,Urban,GRZ,Urban Health Centre,Yes,,28.44441493,-14.43578336
Central,Kabwe,Chalilo RHC, Blossom Surgery Clinic,102003,Urban,NGO,Health Post,Yes,,28.44862259,-14.45790931
Central,Kabwe,Chankalamo HP, Chankalamu Health Post,102066,Rural,GRZ,Health Post,Yes,,28.44631351,-14.54168386
Central,Kabwe,Chipundu RHC, Bwacha Urban Health Centre,102010,Urban,GRZ,Urban Health Centre,Yes,,28.4407245,-14.40806894
Central,Kabwe,Chitambo District Hospital, Chowa Urban Health Centre,102027,Urban,GRZ,Urban Health Centre,Yes,,28.4435871,-14.45950618
Central,Kabwe,Chreso Ministries HP, Chreso Ministries Health Post,102051,Peri-Urban,Faith Based,Urban Health Centre,Yes,,28.44615555,-14.45259824
Central,Kabwe,Gibson RHC, Fibale Private Clinic,102002,Peri-Urban,Private,Health Post,Yes,,28.42177328,-14.44844288
Central,Kabwe,Hamdudu HP, Hamdudu Health Post,102063,Rural,GRZ,Health Post,Yes,,28.35119321,-14.63720482
Central,Kabwe,Kabwe General Hospital, Kabwe General Hospital,102088,Urban,GRZ,Level 2 Hospital Provincial,Yes,,28.42955557,-14.43489489
Central,Kabwe,Kabwe Mine Hospital, Kabwe Mine Hospital,102001,Urban,GRZ,Level 2 Hospital Provincial,Yes,,28.43841829,-14.44861473
Central,Kabwe,Kabwemedicalcentre, Kabwe Medical Centre,102072,Urban,Private,Urban Health Centre,Yes,,28.44936917,-14.44088197
Central,Kabwe,Kalwelwe Health Center, Kalwelwe Health Centre,102057,Rural,GRZ,Health Post,Yes,,28.34906626,-14.70845376
Central,Kabwe,Kamakuti HP, Kamakuti Health Post,102061,Rural,GRZ,Health Post,Yes,,28.48275544,-14.51228085
Central,Kabwe,Kangomba HP, Kangomba Health Post,102039,Rural,GRZ,Urban Health Centre,Yes,,28.40934975,-14.52651004
Central,Kabwe,Kasanda UHC, Kasanda Urban Health Centre,102028,Urban,GRZ,Urban Health Centre,Yes,,28.42630423,-14.4554119
Central,Kabwe,Kasavasa RHC, Kasavasa Rural Health Centre,102035,Rural,GRZ,Urban Health Centre,Yes,,28.37785131,-14.57748609
Central,Kabwe,Katondo UHC, Katondo Urban Health Centre,102041,Urban,GRZ,Health Post,Yes,,28.47174593,-14.45668591
Central,Kabwe,Kawama UHC , Kawama Urban Health Centre (Kabwe),102033,Rural,GRZ,Urban Health Centre,Yes,,28.42841636,-14.42039055
Central,Kabwe,Mahatma Ghandhi Memorial UHC, Mahatma Ghandhi Memorial Urban Health Centre,102015,Urban,GRZ,Urban Health Centre,Yes,,28.46149686,-14.43556647
Central,Kabwe,Makululu UHC, Makululu Urban Health Centre,102016,Peri-Urban,GRZ,Urban Health Centre,Yes,,28.41361691,-14.44525562
Central,Kabwe,Makupu A HP, Makupu A Health Post,102062,Peri-Urban,GRZ,Health Post,Yes,,28.31035,-14.41594833
Central,Kabwe,Makupu B HP, Makupu B Health Post,102009,Peri-Urban,GRZ,Health Post,Yes,,28.323515,-14.38963
Central,Kabwe,Mpima Dairy RHC, Mpima Dairy Rural Health Centre,102037,Peri-Urban,GRZ,Health Post,Yes,,28.57785314,-14.36311404
Central,Kabwe,Mukobeko Township UHC, Mukobeko Township Urban Health Centre,102019,Urban,GRZ,Rural Health Centre,Yes,,28.40915802,-14.41913827
Central,Kabwe,Mukuni Insurance Clinic Limited,Mukuni Insurance Clinic Limited,102073,Urban,Private,Urban Health Centre,Yes,,28.44835087,-14.44128554
Central,Kabwe,Munga HP, Munga Health Post,102044,Rural,GRZ,Health Post,Yes,,28.23481328,-14.46762645
Central,Kabwe,Nakoli UHC, Nakoli Urban Health Centre,102020,Urban,GRZ,Rural Health Centre,Yes,,28.44984616,-14.40780905
Central,Kabwe,Natuseko UHC, Natuseko Urban Health Centre,102021,Urban,GRZ,Health Post,Yes,,28.459674,-14.40304803
Central,Kabwe,Ngungu UHC, Ngungu Urban Health Centre,102022,Urban,GRZ,Urban Health Centre,Yes,,28.44410144,-14.3927912
Central,Kabwe,Nkhrumah Teachers College HP, Nkhrumah Teachers College Health Post,102032,Urban,Private,Health Post,Yes,,28.46678511,-14.44642716
Central,Kabwe,Nkumbu UHC,Nkumbu UHC,102075,Urban,NGO,Urban Health Centre,Yes,,28.40001967,-14.44860095
Central,Kabwe,Pollen UHC, Pollen Urban Health Centre,102023,Urban,GRZ,Urban Health Centre,Yes,,28.46286111,-14.44116856
Central,Kabwe,Providence Medical Centre, Providence Medical Centre,102060,Urban,Private,Urban Health Centre,Yes,,28.44217351,-14.43859277
Central,Kabwe,Railway Surgery UHC, Railway Surgery Urban Health Centre,102012,Urban,GRZ,Urban Health Centre,Yes,,28.44213667,-14.447915
Central,Kabwe,Ranchhod Hospice, Ranchhod Hospice,102046,Urban,Private,Urban Health Centre,Yes,,28.46455903,-14.45175912
Central,Kapiri Mposhi,Central DiagNostic Systems And Distributors,Central DiagNostic Systems And Distributors,103037,Urban,Private,Urban Health Centre,Yes,,28.68649461,-13.97346038
Central,Kapiri Mposhi,Chambulumina HP, Chambulumina Health Post,103049,Rural,GRZ,Health Post,Yes,,28.7854731,-13.92981283
Central,Kapiri Mposhi,Chankomo RHC, Chankomo Rural Health Centre,103002,Rural,GRZ,Rural Health Centre,Yes,,29.04772057,-13.90257868
Central,Kapiri Mposhi,Chapusha HP, Chapusha Health post,103027,Rural,GRZ,Health Post,Yes,,28.18036041,-14.05364453
Central,Kapiri Mposhi,Chawama UHC, Chawama Urban Health Centre,103022,Urban,GRZ,Urban Health Centre,Yes,,28.66728068,-13.94075496
Central,Kapiri Mposhi,Chibwe RHC, Chibwe Rural Health Centre,103003,Rural,GRZ,Rural Health Centre,Yes,,28.70979474,-14.31581348
Central,Kapiri Mposhi,Chilumba RHC, Chilumba Rural Health Centre,103004,Rural,GRZ,Rural Health Centre,Yes,,28.19346565,-14.3963015
Central,Kapiri Mposhi,Chipepo RHC, Chipepo Rural Health Centre,103006,Rural,GRZ,Rural Health Centre,Yes,,28.10364341,-14.11263908
Central,Kapiri Mposhi,Chishinka RHC, Chishinka Rural Health Centre,103030,Rural,GRZ,Health Post,Yes,,29.08329873,-14.31196041
Central,Kapiri Mposhi,Chitaba RHC, Chitaba Rural Health Centre,103026,Rural,GRZ,Health Post,Yes,,28.34523024,-14.06185319
Central,Kapiri Mposhi,Ilungu HP,Ilungu Health Post,103038,Rural,GRZ,Health Post,Yes,,28.90186144,-14.66403089
Central,Kapiri Mposhi,Kabaka HP,Kabaka Health Post,103039,Rural,GRZ,Health Post,Yes,,28.47791507,-13.93723762
Central,Kapiri Mposhi,Kabwale HP,Kabwale Health Post,103040,Rural,GRZ,Health Post,Yes,,28.52823307,-13.94108546
Central,Kapiri Mposhi,Kafinda RHC, Kafinda Rural Health Centre,103029,Rural,GRZ,Health Post,Yes,,29.02766264,-14.13169384
Central,Kapiri Mposhi,Kakulu RHC, Kakulu Rural Health Centre,103007,Rural,GRZ,Rural Health Centre,Yes,,28.60015341,-14.08824112
Central,Kapiri Mposhi,Kampumba RHC, Kampumba Rural Health Centre,103008,Rural,GRZ,Rural Health Centre,Yes,,29.00553645,-14.56262318
Central,Kapiri Mposhi,Kapiri Mposhi District Hospitale, Kapiri Mposhi District Hospital,103001,Urban,GRZ,Level 1 Hospital District,Yes,,28.6700521,-13.89647402
Central,Kapiri Mposhi,Kapiri UHC, Kapiri Urban Health Centre,103024,Urban,GRZ,Urban Health Centre,Yes,,28.67745948,-13.96645138
Central,Kapiri Mposhi,Kashitu HP,Kashitu Health Post,103041,Rural,GRZ,Health Post,Yes,,28.66834907,-13.70991544
Central,Kapiri Mposhi,Kaswende HP,Kaswende Health Post,103036,Rural,GRZ,Health Post,Yes,,27.99661917,-14.43643665
Central,Kapiri Mposhi,Katukwe HP,Katukwe Health Post,103042,Rural,GRZ,Health Post,Yes,,28.0603448,-13.9523709
Central,Kapiri Mposhi,Kawama UHC, Kawama Urban Health Centre (Kapiri),103021,Urban,GRZ,Urban Health Centre,Yes,,28.68939367,-13.98783293
Central,Kapiri Mposhi,Likumbi HP, Likumbi Health Post,103034,Rural,GRZ,Health Post,Yes,,28.94341031,-14.38667069
Central,Kapiri Mposhi,Luanshimba RHC, Luanshimba Rural Health Centre,103009,Rural,GRZ,Rural Health Centre,Yes,,28.57162795,-14.22412078
Central,Kapiri Mposhi,Lukanda B HP,Lukanda B Health Post,103043,Rural,GRZ,Health Post,Yes,,28.59032869,-13.89721265
Central,Kapiri Mposhi,Lukomba HP, Lukomba Health Post,103032,Rural,GRZ,Rural Health Centre,Yes,,28.90010469,-13.87816455
Central,Kapiri Mposhi,Lunchu B RHC, Lunchu B Rural Health Centre,103028,Rural,GRZ,Rural Health Centre,Yes,,28.88423202,-14.00112186
Central,Kapiri Mposhi,Lunsemfwa RHC, Lunsemfwa Rural Health Centre,103010,Rural,GRZ,Rural Health Centre,Yes,,29.12248596,-14.50682938
Central,Kapiri Mposhi,Material HP,Material Health Post,103044,Urban,GRZ,Health Post,Yes,,28.67347705,-13.97695174
Central,Kapiri Mposhi,Mpunde RHC, Mpunde Rural Health Centre,103014,Rural,Faith Based,Rural Health Centre,Yes,,28.21613507,-14.20976302
Central,Kapiri Mposhi,Mukonchi RHC, Mukonchi Rural Health Centre,103011,Rural,GRZ,Rural Health Centre,Yes,,28.81762467,-14.26338543
Central,Kapiri Mposhi,Mulungushi RHC, Mulungushi Rural Health Centre,103013,Rural,Private,Rural Health Centre,Yes,,28.84413544,-14.73048601
Central,Kapiri Mposhi,Mulungushi University Rhc, Mulungushi University Clinic,103017,Rural,GRZ,Rural Health Centre,Yes,,28.55965264,-14.29336066
Central,Kapiri Mposhi,Mutaba UHC, Mutaba Urban Health Centre,103035,Urban,GRZ,Urban Health Centre,Yes,,28.66832019,-13.92537629
Central,Kapiri Mposhi,Ndeke UHC, Ndeke Urban Health Centre,103023,Urban,GRZ,Urban Health Centre,Yes,,28.69249328,-13.96735774
Central,Kapiri Mposhi,Nkole RHC, Nkole Rural Health Centre,103016,Rural,GRZ,Rural Health Centre,Yes,,28.80738133,-13.76562463
Central,Kapiri Mposhi,S & F Surgery,S & F Surgery,103045,Urban,Private,Health Post,Yes,,28.68898439,-13.96697699
Central,Kapiri Mposhi,Shamputa HP,Shamputa Health Post,103046,Rural,GRZ,Health Post,Yes,,27.87306961,-14.04701073
Central,Kapiri Mposhi,St Pauls RHC, St Pauls Rural Health Centre,103018,Rural,Faith Based,Rural Health Centre,Yes,,28.61943228,-14.3335127
Central,Kapiri Mposhi,Tazara UHC, Tazara Urban Health Centre,103025,Urban,GRZ,Health Post,Yes,,28.68066046,-13.95686479
Central,Kapiri Mposhi,Waya RHC, Waya Rural Health Centre,103019,Rural,GRZ,Rural Health Centre,Yes,,28.00400128,-14.35151217
Central,LuaNo,Chikupili RHC, Chikupili Rural Health Centre,104022,Rural,GRZ,Rural Health Centre,Yes,1850,29.24262326,-14.0773279
Central,LuaNo,Kampelembe HP, Kampelembe Health Post,104032,Rural,GRZ,Health Post,Yes,3298,29.3225169,-14.16460036
Central,LuaNo,KanYesha Health Centre, KanYesha Health Centre,104036,Rural,GRZ,Rural Health Centre,Yes,1349,29.40500915,-14.46617765
Central,LuaNo,Kaundula RHC, Kaundula Rural Health Centre,104026,Rural,GRZ,Rural Health Centre,Yes,4204,29.66103296,-14.19322751
Central,LuaNo,Mboroma RHC, Mboroma Rural Health Centre,104017,Rural,GRZ,Rural Health Centre,Yes,3598,30.13253446,-14.11731392
Central,LuaNo,Mkushi Copper Mine New HP,Mkushi Copper Mine New Health Post,104044,Rural,GRZ,Health Post,Yes,8060,29.15570654,-13.95348681
Central,LuaNo,Mkushi Copper Mine RHC, Mkushi Copper Mine Rural Health Centre,104024,Rural,GRZ,Health Post,Yes,8060,29.14873709,-13.95407746
Central,LuaNo,Nyenje Health Centre, Old Mkushi Rural Health Centre,104021,Rural,GRZ,Rural Health Centre,Yes,3747,29.3972172,-14.4162421
Central,LuaNo,Tuyu Health Centre, Tuyu Rural Health Centre,104035,Rural,GRZ,Health Post,Yes,1649,29.39664862,-13.62459665
Central,Mkushi,Chalata RHC, Chalata Rural Health Centre,104010,Rural,GRZ,Rural Health Centre,Yes,,29.68313706,-13.55097768
Central,Mkushi,Changilo HP, Changilo Health Post,104053,Rural,GRZ,Health Post,Yes,,29.61581267,-13.54201185
Central,Mkushi,Chengelo  RHC, Chengelo Clinic,104030,Rural,Private,Rural Health Centre,Yes,,29.60589445,-13.63561659
Central,Mkushi,Chibefwe UHC, Chibefwe Rural Health Centre,104011,Urban,GRZ,Urban Health Centre,Yes,,29.39513179,-13.61692516
Central,Mkushi,Chikabile  HP,Chikabile  Health Post,104059,Rural,GRZ,Health Post,No,,29.73892179,-13.84888074
Central,Mkushi,Chisanga HP, Chisanga Rural Health Centre,104040,Rural,Faith Based,Health Post,Yes,1124,28.89901444,-13.58670106
Central,Mkushi,Chitina HP, Chitina Health Post,104043,Rural,GRZ,Health Post,Yes,,29.11293295,-13.65550523
Central,Mkushi,Fiwila Mission, Fiwila Rural Health Centre,104014,Rural,Faith Based,Rural Health Centre,Yes,5139,29.60594608,-13.97088547
Central,Mkushi,Kabengeshi  HP, Kabengeshi Rural Health Post,104039,Rural,GRZ,Health Post,Yes,1445,29.64246579,-13.87354743
Central,Mkushi,Kakushi HP, Kakushi Health Post,104028,Rural,GRZ,Health Post,Yes,3183,29.63100202,-13.80320268
Central,Mkushi,Kasalamakanga  HP,Kasalamakanga  Health Post,104051,Rural,GRZ,Health Post,No,964,29.49422579,-13.60497407
Central,Mkushi,Kasokota HP, Kasokota Health Post,104070,Rural,GRZ,Health Post,Yes,,29.17005287,-13.70510688
Central,Mkushi,Katuba HP,Katuba Health Post,104045,Peri-Urban,GRZ,Health Post,Yes,,29.26345402,-13.67694289
Central,Mkushi,Lesa Wesu UHC, Lesa Wesu Private Clinic,104056,Urban,Private,Urban Health Centre,Yes,,29.38676375,-13.61850977
Central,Mkushi,Lilanda HP,Lilanda Health Post,104049,Rural,GRZ,Health Post,No,1606,29.63261629,-13.72600753
Central,Mkushi,Luashimba RHC, Luanshimba Rural Health Centre (Mkushi),104015,Rural,Military,Rural Health Centre,Yes,,29.58669494,-13.70575496
Central,Mkushi,Malubila HP,Malubila Health Post,104041,Rural,GRZ,Health Post,Yes,,29.44733709,-13.79811575
Central,Mkushi,Masansa RHC, Masansa Rural Health Centre,104016,Rural,GRZ,Rural Health Centre,Yes,24000,29.38708874,-13.94506285
Central,Mkushi,Mikunka  HP, Mikunku Rural Health centre,104038,Rural,GRZ,Health Post,Yes,2409,29.04339071,-13.79092592
Central,Mkushi,Miloso HP, Miloso Health Post,104027,Rural,GRZ,Health Post,Yes,4015,29.54635084,-13.79749498
Central,Mkushi,Mkushi District Hospital, Mkushi District Hospital,104001,Urban,GRZ,Level 1 Hospital District,Yes,,29.3952755,-13.61662277
Central,Mkushi,Mkushi General Hospital,Mkushi General Hospital,104081,Peri-Urban,GRZ,Level 1 Hospital District,Yes,,29.38395693,-13.61431828
Central,Mkushi,Moffat RHC,Moffat RHC,104055,Rural,Private,Rural Health Centre,Yes,,29.60774559,-13.62193251
Central,Mkushi,Mulundu UHC, Mulundu Health Post,104042,Peri-Urban,GRZ,Urban Health Centre,Yes,,29.40963523,-13.6139819
Central,Mkushi,Mulungwe HP, Mulungwe Rural Health Centre,104080,Rural,GRZ,Health Post,Yes,2730,29.81265346,-13.91839229
Central,Mkushi,Munsakamba RHC, Munsakamba Health Post,104029,Rural,GRZ,Rural Health Centre,Yes,,29.35048472,-13.56132082
Central,Mkushi,Musofu  RHC, Musofu Rural Health Centre,104019,Rural,GRZ,Rural Health Centre,Yes,6745,29.04128275,-13.51393436
Central,Mkushi,Mutende Clinic HP, Mutende Private Clinic,104060,Urban,Private,Health Post,Yes,,29.39184831,-13.62533905
Central,Mkushi,Nambala RHC, Nambo Rural Health Post,104037,Rural,GRZ,Health Post,Yes,3533,29.5536648,-13.60700035
Central,Mkushi,Nkolonga RHC, Nkolonga Health Post,104025,Rural,GRZ,Rural Health Centre,Yes,,29.5786697,-13.58975593
Central,Mkushi,Nkumbi RHC, Nshinso Rural Health Centre,104023,Rural,GRZ,Rural Health Centre,Yes,6585,29.75379791,-13.61743083
Central,Mkushi,Nkumbi RHC, Nkumbi Rural Health Centre,104020,Rural,GRZ,Rural Health Centre,Yes,,29.06929635,-13.7431272
Central,Mkushi,Ntekete HP, Nyenje Health Post,104047,Rural,GRZ,Health Post,Yes,2051,29.57829963,-14.13105098
Central,Mkushi,Ntekete RHC,Ntekete RHC,104058,Rural,GRZ,Rural Health Centre,Yes,,29.75831603,-13.54476984
Central,Mkushi,Serenje HAHC, Shaibila Health Post,104046,Rural,GRZ,Health Post,Yes,,29.56677804,-14.01746911
Central,Mkushi,Tamo RHC,Tamo RHC,104054,Rural,Private,Rural Health Centre,Yes,,29.43344057,-13.63859015
Central,Mkushi,Tusekelemo Medical Center, Tusekelemo Rural Health Centre,104057,Urban,Private,Level 1 Hospital District,Yes,,29.39348275,-13.62781184
Central,Mkushi,Twatasha UHC, Twatasha Health Post,104033,Rural,GRZ,Urban Health Centre,Yes,3533,29.46397429,-13.8056451
Central,Mkushi,Upper Lusenfwa HP, Upper Lusemfwa Health Post,104048,Rural,GRZ,Health Post,Yes,,29.44901426,-13.47523911
Central,Mumbwa,Bulungu UHC, Bulungu Urban Health Centre,105060,Urban,GRZ,Urban Health Centre,Yes,,27.06509336,-14.98279135
Central,Mumbwa,Chiwena RHC, Chiwena Rural Health Centre,105029,Rural,GRZ,Rural Health Centre,Yes,11026,27.26722445,-14.99747534
Central,Mumbwa,Chunga RHC, Chunga Rural Health Centre,105010,Rural,GRZ,Health Post,Yes,802,26.00288031,-15.04770761
Central,Mumbwa,Kabwanga RHC, Kabwanga Rural Health Centre,105032,Rural,GRZ,Rural Health Centre,Yes,4008,27.0284433,-14.9209166
Central,Mumbwa,Kafwikamo HP, Kafwikamo Health Post,105070,Rural,GRZ,Health Post,Yes,,26.91886626,-14.63218716
Central,Mumbwa,Kaindu RHC, Kaindu Rural Health Centre,105003,Rural,GRZ,Rural Health Centre,Yes,8156,26.91996077,-14.53298431
Central,Mumbwa,Kalenda Zambia National Service RHC, Kalenda Zambia National Service Rural Health Centre,105028,Rural,GRZ,Rural Health Centre,Yes,7014,26.88397174,-14.71201746
Central,Mumbwa,Kamilambo RHC, Kamilambo Rural Health Centre,105035,Rural,GRZ,Rural Health Centre,Yes,9902,27.13238167,-14.73808391
Central,Mumbwa,Kapepe HP, Kapepe Health Post,105037,Rural,GRZ,Health Post,Yes,3512,26.66922407,-15.09556299
Central,Mumbwa,Kashinka HP, Kashinka Health Post,105004,Rural,GRZ,Health Post,Yes,3500,26.9861484,-14.97457298
Central,Mumbwa,Keezwa RHC, Keezwa Rural Health Centre,105013,Rural,GRZ,Rural Health Centre,Yes,10300,27.45338939,-15.38987122
Central,Mumbwa,Luili RHC, Luili Rural Health Centre,105026,Rural,GRZ,Rural Health Centre,Yes,8358,27.18985292,-15.16074663
Central,Mumbwa,Lungobe RHC, Lungobe Rural Health Centre,105014,Rural,GRZ,Rural Health Centre,Yes,17000,26.82159081,-15.01573219
Central,Mumbwa,Lutale RHC, Lutale Rural Health Centre,105015,Rural,GRZ,Rural Health Centre,Yes,9975,26.88775155,-15.12602969
Central,Mumbwa,Maimwene HP, Maimwene Health Post,105030,Rural,GRZ,Rural Health Centre,Yes,7083,27.2025591,-14.94187719
Central,Mumbwa,Mpusu HP, Mpusu Health Post,105034,Rural,GRZ,Rural Health Centre,Yes,5010,27.06094782,-14.46084773
Central,Mumbwa,Muchabi RHC, Muchabi Rural Health Centre,105016,Rural,GRZ,Rural Health Centre,Yes,6613,27.27910374,-15.44558146
Central,Mumbwa,Mulungushi RHC,Mulungushi RHC,105005,Rural,GRZ,Rural Health Centre,No,,27.19572407,-15.00750816
Central,Mumbwa,Mumbwa District Hospital, Mumbwa District Hospital,105001,Rural,GRZ,Level 1 Hospital District,Yes,133081,27.05325594,-14.97612812
Central,Mumbwa,Myooye RHC, Myooye Rural Health Centre,105019,Rural,GRZ,Rural Health Centre,Yes,18500,27.3427929,-15.2184936
Central,Mumbwa,Nakanjoli RHC, Nakanjoli Rural Health Centre,105033,Rural,GRZ,Rural Health Centre,Yes,9500,26.75243263,-15.15774368
Central,Mumbwa,Nakatambo RHC, Nalubanda Rural Health Centre,105020,Rural,GRZ,Rural Health Centre,Yes,15801,27.07620789,-15.41208003
Central,Mumbwa,Nalusanga HP, Naluvwi Health Post,105031,Rural,GRZ,Health Post,Yes,13000,26.94622519,-15.31173023
Central,Mumbwa,Nalusanga HP, Nalusanga Health Post,105006,Rural,GRZ,Health Post,Yes,,26.71266903,-14.9757495
Central,Mumbwa,Namabanga  HP,Namabanga  Health Post,105007,Rural,GRZ,Health Post,Yes,21350,27.18192632,-15.28078821
Central,Mumbwa,Nambala RHC, Nambala Rural Health Centre,105021,Rural,GRZ,Rural Health Centre,Yes,8817,27.02992782,-15.10670788
Central,Mumbwa,Nangoma HAHC, Nangoma Hospital Affiliated Health Centre,105098,Rural,Faith Based,Rural Health Centre,Yes,22656,27.36265585,-15.12753584
Central,Mumbwa,Nangoma Mission Hospital, Nangoma Mission Hospital,105008,Rural,Faith Based,Level 1 Hospital District,Yes,77000,27.36267126,-15.12743179
Central,Mumbwa,Shimbizhi HP, Shimbizhi Health Post,105009,Rural,GRZ,Health Post,Yes,3817,27.10095209,-15.0258065
Central,Mumbwa,Yoramu Mwanje HP, Zambia Air Force Mumbwa Rural Health Centre,105027,Rural,Military,Rural Health Centre,Yes,6785,27.18580227,-15.08583538
Central,Ngabwe,Chilwa RHC, Chilwa Rural Health Centre,1055010,Rural,GRZ,Rural Health Centre,Yes,,27.65111125,-14.21084355
Central,Ngabwe,Mukubwe RHC, Mukubwe Rural Health Centre,1055112,Rural,GRZ,Rural Health Centre,Yes,,27.74665355,-13.8983895
Central,Ngabwe,Mumbachala Health Centre, Mumbachala Health Centre,1055116,Rural,GRZ,Health Post,Yes,,27.41752169,-14.09891128
Central,Ngabwe,Ngabwe RHC, Ngabwe Rural Health Centre,1055115,Rural,GRZ,Rural Health Centre,Yes,,27.254302,-14.0857422
Central,Ngabwe,Nsengwe HP,Nsengwe Health Post,1055113,Rural,GRZ,Health Post,Yes,,27.58422869,-14.02190477
Central,Serenje,Chibale RHC, Chibale Rural Health Centre,1060110,Rural,GRZ,Rural Health Centre,Yes,14058,30.14766044,-13.59222926
Central,Serenje,Chibobo HP, Chibobo Health Post,1060134,Rural,GRZ,Health Post,Yes,7785,30.02086488,-13.01810212
Central,Serenje,Chisomo RHC, Chisomo Rural Health Centre,1060112,Rural,GRZ,Rural Health Centre,Yes,7196,30.66944833,-13.59165476
Central,Serenje,Kabamba RHC, Kabamba Rural Health Centre,1060114,Rural,GRZ,Rural Health Centre,Yes,23011,30.3574122,-13.18024384
Central,Serenje,Kabundi RHC, Kabundi Rural Health Centre,1060115,Rural,GRZ,Rural Health Centre,Yes,20944,30.02082674,-13.01793633
Central,Serenje,Kalela HP, Kalela Health Post,1060202,Rural,GRZ,Health Post,Yes,1459,30.76833861,-13.05493892
Central,Serenje,KaNona HP, KaNona Health Post,1060129,Rural,GRZ,Rural Health Centre,Yes,7287,30.62806796,-13.07183897
Central,Serenje,Kaseba HP, Kaseba Health Post,1060113,Rural,GRZ,Health Post,Yes,9946,30.39910211,-13.51008145
Central,Serenje,Kashishi  HP, Kashishi Health Post,1060207,Rural,GRZ,Health Post,Yes,2836,30.23739274,-12.98577379
Central,Serenje,Kunda Lumwanshya HP, Kunda Lumwanshya Health Post,1060131,Rural,GRZ,Health Post,Yes,4727,30.27390179,-13.55080023
Central,Serenje,Lumpampa  HP, Lumpampa Health Post,1060204,Rural,GRZ,Health Post,Yes,1784,30.13080142,-13.21157451
Central,Serenje,Lusiwasi HP, Lusiwasi Health Post,1060116,Rural,Private,Rural Health Centre,Yes,4208,31.03056746,-13.32359328
Central,Serenje,Mailo RHC, Mailo Rural Health Centre,1060117,Rural,GRZ,Rural Health Centre,Yes,6393,30.90240874,-13.05464513
Central,Serenje,Malcom Moffat RHC, Malcom Moffat Rural Health Centre,1060118,Urban,GRZ,Rural Health Centre,Yes,14422,30.24029145,-13.22078149
Central,Serenje,Masase HP, Masase Health Post,1060133,Rural,GRZ,Health Post,Yes,4208,31.07682944,-13.19359872
Central,Serenje,Miswema HP, Miswema Health Post,1060132,Rural,GRZ,Health Post,Yes,4208,30.65368935,-13.17409098
Central,Serenje,Mukopa  HP,Mukopa  Health Post,1060206,Rural,GRZ,Health Post,Yes,2186,30.16319554,-13.74270076
Central,Serenje,Mulilima RHC, Mulilima Rural Health Centre,1060123,Rural,GRZ,Rural Health Centre,Yes,20351,29.91655468,-13.36581432
Central,Serenje,Mupepetwe RHC,Mupepetwe RHC,1060120,Rural,Military,Rural Health Centre,Yes,7268,30.65840542,-13.16802508
Central,Serenje,Muunga RHC, Muzumani Health Post,1060200,Rural,GRZ,Health Post,Yes,6011,30.81228895,-13.13638486
Central,Serenje,Nanzhila RHC, Nchimishi Rural Health Centre,1060125,Rural,GRZ,Rural Health Centre,Yes,11151,29.99581212,-13.47819145
Central,Serenje,Nchimishi RHC,Nchimishi RHC,1060205,Rural,GRZ,Health Post,Yes,3883,29.81631802,-13.47170868
Central,Serenje,Prisons HP, Serenje District Hospital,1060198,Urban,GRZ,Level 1 Hospital District,Yes,215926,30.24170933,-13.25322645
Central,Serenje,Serenje District Hospital, Serenje Hospital Affiliated Health Centre,10602010,Urban,GRZ,Urban Health Centre,Yes,21766,30.23465856,-13.23521982
Central,Serenje,Sote HP, Sote Health Post,1060203,Rural,GRZ,Health Post,Yes,3025,30.7261405,-12.93539734
Central,Serenje,Tazara HP,Tazara Health Post,1060201,Urban,GRZ,Health Post,Yes,4994,30.21699496,-13.22860817
Central,Mkushi,Luanshimba ZNS,Luanshimba ZNS,104015,Rural,Military,Rural  Health Centre,,4468,28.26013409,-12.5671876
Central,Mkushi,Munsakamba ZNS,Munsakamba ZNS,104035,Peri-Urban,Military,Health Post,,7067,29.58662161,-13.7058017
Central,Serenje,Kanona,Kanona,106029,Rural,Military,Rural Health Centre,,6154,29.34953093,-13.56229413
Central,Kabwe,Chindwin Camp UHC,Chindwin Camp UHC,102030,Urban,Military,Urban Health Centre,,5330,28.22219827,-12.81009985
Central,Kabwe,ZAFKabwe UHC,ZAFKabwe UHC,102036,Urban,Military,Urban Health Centre,,4017,28.33617167,-15.436095
Copperbelt,Chililabombwe,Azatisa Clinic, Azatisa Clinic,201024,Urban,Private,Urban Health Centre,Yes,,27.8451522,-12.38023705
Copperbelt,Chililabombwe,Chililabobwe District Hospital,Chililabobwe District Hospital,201002,Urban,GRZ,Level 1 Hospital District,Yes,,27.86196545,-12.37111748
Copperbelt,Chililabombwe,Chimfunshi RHC, Chimfunshi Rural Health Centre,201020,Rural,GRZ,Rural Health Centre,Yes,7005,27.73163888,-12.33005806
Copperbelt,Chililabombwe,Clinic 1 UHC,Clinic 1 UHC,201003,Urban,Private,Urban Health Centre,Yes,13102,27.82793349,-12.36074109
Copperbelt,Chililabombwe,Clinic 4 UHC,Clinic 4 UHC,201004,Urban,Private,Urban Health Centre,Yes,11882,27.82155408,-12.36671364
Copperbelt,Chililabombwe,Esthada UHC,Esthada UHC,201016,Peri-Urban,Private,Urban Health Centre,Yes,2067,27.75974556,-12.29610268
Copperbelt,Chililabombwe,Fikolongo HP,Fikolongo Health Post,201006,Rural,GRZ,Health Post,Yes,,27.90979557,-12.45707184
Copperbelt,Chililabombwe,Fitobaula HP, Fitobaula Health Post,201009,Rural,GRZ,Health Post,Yes,,27.86794386,-12.45587102
Copperbelt,Chililabombwe,Health Center 5 UHC,Health Center 5 UHC,201030,Urban,Private,Urban Health Centre,Yes,6096,27.84818502,-12.3730812
Copperbelt,Chililabombwe,Kakoso UHC, Kakoso Urban Health Centre,201010,Urban,GRZ,Urban Health Centre,Yes,18080,27.85547211,-12.37306069
Copperbelt,Chililabombwe,Kasumbalesa HP,Kasumbalesa Health Post,201013,Urban,GRZ,Health Post,Yes,,27.79649669,-12.27139578
Copperbelt,Chililabombwe,Kasumbalesa UHC, Kasumbalesa Urban Health Centre,201011,Urban,GRZ,Urban Health Centre,Yes,10187,27.79684325,-12.26756717
Copperbelt,Chililabombwe,Konkola HP, Konkola Health Post,201001,Rural,GRZ,Health Post,Yes,3471,27.75720412,-12.29901243
Copperbelt,Chililabombwe,Konkola Mine Private Hospital, Konkola Mine Private Hospital,201033,Urban,Private,Level 2 Hospital Provincial,Yes,,27.82800589,-12.36861836
Copperbelt,Chililabombwe,Lubansa HP,Lubansa Health Post,201029,Rural,GRZ,Health Post,Yes,,27.9153159,-12.34064377
Copperbelt,Chililabombwe,Lubengele UHC, Lubengele Urban Health Centre,201015,Urban,GRZ,Urban Health Centre,Yes,50028,27.8323861,-12.3618881
Copperbelt,Chililabombwe,Malubeni HP,Malubeni Health Post,201019,Rural,GRZ,Health Post,Yes,,27.66048262,-12.33683686
Copperbelt,Chililabombwe,Miliyashi HP,Miliyashi Health Post,201021,Rural,GRZ,Health Post,Yes,,27.9651517,-12.41933861
Copperbelt,Chililabombwe,Miteta HP,Miteta Health Post,201022,Rural,GRZ,Health Post,Yes,,27.76390553,-12.38984911
Copperbelt,Chililabombwe,Ppz HP,PPZ Health Post,201025,Urban,GRZ,Health Post,Yes,,27.83211698,-12.34879623
Copperbelt,Chililabombwe,Sadc HP,SADC Health Post,201026,Urban,GRZ,Health Post,Yes,,27.79363935,-12.26564719
Copperbelt,Chililabombwe,Shaft 1 UHC, Shaft 1 Urban Health Centre,201017,Urban,Private,Urban Health Centre,Yes,,27.82944642,-12.3766275
Copperbelt,Chililabombwe,Shaft 3 UHC, Shaft 3 Urban Health Centre,201018,Urban,Private,Urban Health Centre,Yes,,27.81919724,-12.35954606
Copperbelt,Chingola,Chawama UHC, Chawama Urban Health Centre,202010,Urban,GRZ,Urban Health Centre,Yes,40969,27.84036779,-12.55787711
Copperbelt,Chingola,Chimfunshi HP,Chimfunshi Health Post,202037,Rural,GRZ,Health Post,Yes,,27.48016333,-12.36728
Copperbelt,Chingola,Chingola Municipal Council UHC, Chingola Municipal Council Urban Health Centre,202011,Urban,GRZ,Urban Health Centre,Yes,10925,27.86586002,-12.54462292
Copperbelt,Chingola,Chiwempala UHC, Chiwempala Urban Health Centre,202012,Urban,GRZ,Urban Health Centre,Yes,35506,27.84371403,-12.54878134
Copperbelt,Chingola,Eye And Dental Clinic,Eye And Dental Clinic,202038,Urban,GRZ,Urban Health Centre,Yes,,27.86518417,-12.54000713
Copperbelt,Chingola,Guy Scott Mini Hospital., Guy Scott Mini Hospital.,202020,Urban,GRZ,Urban Health Centre,Yes,,27.90726684,-12.53706653
Copperbelt,Chingola,Ipafu RHC, Ipafu Rural Health Centre,202023,Rural,GRZ,Rural Health Centre,Yes,10925,27.69108167,-12.525095
Copperbelt,Chingola,Kabundi East UHC, Kabundi East Urban Health Centre,202013,Urban,GRZ,Urban Health Centre,Yes,49163,27.89128411,-12.52789409
Copperbelt,Chingola,Kalilo RHC, Kalilo Rural Health Centre,202014,Rural,GRZ,Rural Health Centre,Yes,8194,27.76716007,-12.49161665
Copperbelt,Chingola,Kasompe UHC, Kasompe Urban Health Centre,202015,Peri-Urban,GRZ,Urban Health Centre,Yes,24581,27.89390797,-12.59181349
Copperbelt,Chingola,Katuba HP,Katuba Health Post,202031,Rural,GRZ,Health Post,Yes,,27.940221,-12.71209944
Copperbelt,Chingola,Kawama HP,Kawama Health Post,202036,Rural,GRZ,Health Post,Yes,,27.68359167,-12.551175
Copperbelt,Chingola,Lulamba UHC, Lulamba Urban Health Centre,202016,Urban,Private,Urban Health Centre,Yes,13656,27.84790912,-12.57511952
Copperbelt,Chingola,Lushishi HP,Lushishi Health Post,202034,Rural,GRZ,Health Post,Yes,,27.81907579,-12.66383452
Copperbelt,Chingola,Muchinshi RHC, Muchinshi Rural Health Centre,202017,Rural,GRZ,Rural Health Centre,Yes,13656,27.52479833,-12.49011
Copperbelt,Chingola,Musenga HP, Musenga Health Post,202032,Peri-Urban,GRZ,Health Post,Yes,,27.96131669,-12.59651023
Copperbelt,Chingola,Mutenda RHC, Mutenda Rural Health Centre,202018,Rural,GRZ,Rural Health Centre,Yes,10925,27.36086167,-12.39198
Copperbelt,Chingola,Nchanga I UHC, Nchanga I Urban Health Centre,202019,Urban,GRZ,Urban Health Centre,Yes,19119,27.8676145,-12.52087803
Copperbelt,Chingola,Nchanga Iii UHC, Nchanga III Urban Health Centre,202021,Urban,Private,Urban Health Centre,Yes,27313,27.88034221,-12.52198593
Copperbelt,Chingola,Nchanga North Referral Hospital, Nchanga North Referral Hospital,202040,Urban,GRZ,Level 2 Hospital Provincial,Yes,,27.85957175,-12.5257377
Copperbelt,Chingola,Nchanga South Referral Hospital, Nchanga South Referral Hospital,202050,Urban,Private,Level 2 Hospital Provincial,Yes,,27.86570224,-12.53219427
Copperbelt,Chingola,Nchanga UHC, Nchanga Urban Health Centre,202022,Urban,Private,Urban Health Centre,Yes,8194,27.86082513,-12.53975557
Copperbelt,Chingola,Shimulala HP,Shimulala Health Post,202035,Rural,GRZ,Rural Health Centre,Yes,,27.815402,-12.47773357
Copperbelt,Kalulushi,Chambishi Government UHC, Chambishi Government Urban Health Centre,203010,Peri-Urban,GRZ,Urban Health Centre,Yes,,28.06259945,-12.63999712
Copperbelt,Kalulushi,Chambishi Mine UHC, Chambishi Mine Urban Health Centre,203011,Peri-Urban,Private,Urban Health Centre,Yes,,28.06267623,-12.63762872
Copperbelt,Kalulushi,Chati RHC, Chati Rural Health Centre,203021,Rural,GRZ,Health Post,Yes,,27.80458667,-12.80380167
Copperbelt,Kalulushi,Chembe HP, Chembe Health Post,203024,Rural,GRZ,Health Post,Yes,,27.98731333,-12.83937333
Copperbelt,Kalulushi,Chembe HP,Chembe Health Post,203029,Rural,GRZ,Health Post,Yes,,27.996865,-12.79151167
Copperbelt,Kalulushi,Chibote HP, Chibote Health Post,203023,Peri-Urban,GRZ,Health Post,Yes,,28.14030757,-12.8676759
Copperbelt,Kalulushi,Chibuluma UHC, Chibuluma Urban Health Centre,203012,Urban,GRZ,Rural Health Centre,Yes,,28.13713367,-12.85161893
Copperbelt,Kalulushi,Chisangwa HP,Chisangwa Health Post,203035,Rural,GRZ,Health Post,Yes,,27.73723167,-12.74659
Copperbelt,Kalulushi,Chiwembashi HP,Chiwembashi Health Post,203033,Rural,GRZ,Health Post,Yes,,27.89154833,-12.757855
Copperbelt,Kalulushi,DeNovan HP , DeNovan Health Post ,203031,Rural,GRZ,Health Post,Yes,,28.05297719,-12.73928716
Copperbelt,Kalulushi,Fitanda HP,Fitanda Health Post,203032,Peri-Urban,GRZ,Health Post,Yes,,27.99785577,-12.64697438
Copperbelt,Kalulushi,Ichimpe RHC, Ichimpe Rural Health Centre,203013,Rural,GRZ,Rural Health Centre,Yes,,28.12537792,-12.74098908
Copperbelt,Kalulushi,Kalengwa South HP, Kalengwa South Health Post,203027,Peri-Urban,GRZ,Health Post,Yes,,28.07873302,-12.85341434
Copperbelt,Kalulushi,Kalulushi General Hospital, Kalulushi General Hospital,203001,Urban,GRZ,Level 2 Hospital Provincial,Yes,,28.10039318,-12.83294427
Copperbelt,Kalulushi,Kalulushi Government UHC, Kalulushi Government Urban Health Centre,203036,Urban,GRZ,Rural Health Centre,Yes,,28.09905123,-12.84858431
Copperbelt,Kalulushi,Kalulushi Main UHC, Kalulushi Main Urban Health Centre,203037,Urban,GRZ,Urban Health Centre,Yes,,28.10074653,-12.83996401
Copperbelt,Kalulushi,Kalulushi Township UHC, Kalulushi Township Urban Health Centre,203014,Urban,GRZ,Urban Health Centre,Yes,,28.09806054,-12.8462157
Copperbelt,Kalulushi,Kameme HP,Kameme Health Post,203034,Rural,GRZ,Health Post,Yes,,28.05824,-12.79832833
Copperbelt,Kalulushi,Kite RHC, Kite Rural Health Centre,203022,Rural,GRZ,Health Post,Yes,,27.87527,-12.84990833
Copperbelt,Kalulushi,Lukoshi RHC, Lukoshi Rural Health Centre,203017,Rural,GRZ,Urban Health Centre,Yes,,28.14382171,-12.61752966
Copperbelt,Kalulushi,Mindolo Training Farms UHC, Mindolo Training Farms Urban Health Centre,203018,Peri-Urban,GRZ,Health Post,Yes,,28.12688036,-12.89726979
Copperbelt,Kalulushi,Misenga HP, Misenga Health Post,203026,Peri-Urban,GRZ,Health Post,Yes,,27.98809198,-12.71512323
Copperbelt,Kalulushi,Musakashi HP , Musakashi Health Post ,203030,Peri-Urban,GRZ,Health Post,Yes,,27.99994908,-12.61631678
Copperbelt,Kalulushi,Sitwe HP, Sitwe Health Post,203028,Peri-Urban,GRZ,Health Post,Yes,,28.05834091,-12.62736352
Copperbelt,Kalulushi,Twaiteka Zambia Compound HP, Twaiteka Zambia Compound Health Post,203025,Peri-Urban,GRZ,Health Post,Yes,,28.07577873,-12.63097127
Copperbelt,Kitwe,Beatrice Memorial Medical Centre, Beatrice Memorial Medical Centre,204044,Urban,Private,Urban Health Centre,Yes,,28.14503296,-12.83147216
Copperbelt,Kitwe,Buchi Main UHC, Buchi Main Urban Health Centre,204010,Urban,GRZ,Urban Health Centre,Yes,20472,28.20890594,-12.79492858
Copperbelt,Kitwe,Buchi Small Chest UHC, Buchi Small Chest Urban Health Centre,204011,Urban,GRZ,Urban Health Centre,Yes,,28.2067278,-12.78792479
Copperbelt,Kitwe,Bulangililo UHC, Bulangililo Urban Health Centre,204012,Urban,GRZ,Urban Health Centre,Yes,29912,28.22905762,-12.77099657
Copperbelt,Kitwe,Carewell Medical Centre, Carewell Medical Centre,204038,Urban,Faith Based,Urban Health Centre,Yes,,28.21167153,-12.82513076
Copperbelt,Kitwe,Cbu UHC, CBU Urban Health Centre,204013,Urban,GRZ,Level 2 Hospital Provincial,Yes,,28.23959982,-12.80507068
Copperbelt,Kitwe,Chamboli Grz  UHC,Chamboli Grz  UHC,204005,Urban,GRZ,Urban Health Centre,Yes,21471,28.22745779,-12.85728404
Copperbelt,Kitwe,Chamboli J UHC, Chamboli J (Mopani) Urban Health Centre,204014,Urban,Private,Urban Health Centre,Yes,,28.22497054,-12.85900912
Copperbelt,Kitwe,Chavuma UHC, Chavuma Urban Health Centre,204015,Peri-Urban,GRZ,Rural Health Centre,Yes,,28.3219652,-12.88445019
Copperbelt,Kitwe,Chilobwe RHC, Chilobwe Rural Health Centre,204046,Rural,GRZ,Rural Health Centre,Yes,10717,28.17772158,-12.9540389
Copperbelt,Kitwe,Chiminwa HP, Chiminwa Health Post,204064,Rural,GRZ,Health Post,Yes,4400,28.35249667,-12.95324167
Copperbelt,Kitwe,Chimwemwe UHC, Chimwemwe Urban Health Centre,204016,Urban,GRZ,Urban Health Centre,Yes,55317,28.20167978,-12.77128266
Copperbelt,Kitwe,City Square (Council) Clinic, City Square (Council) Clinic,204017,Urban,GRZ,Urban Health Centre,Yes,,28.21237409,-12.82095773
Copperbelt,Kitwe,Community Development College HP, Community Development College Health Post,204055,Urban,GRZ,Urban Health Centre,Yes,5901,28.26243889,-12.88032333
Copperbelt,Kitwe,Company UHC, Company Urban Health Centre,204018,Urban,Private,Urban Health Centre,Yes,,28.21254,-12.81780167
Copperbelt,Kitwe,Cosetco HP, Cosetco Health Post,204019,Peri-Urban,GRZ,Urban Health Centre,Yes,5461,28.15356438,-12.72256215
Copperbelt,Kitwe,East Garnetone UHC, East Garnetone Urban Health Centre,204065,Peri-Urban,GRZ,Health Post,Yes,4920,28.19400274,-12.73620318
Copperbelt,Kitwe,Garnatone UHC, Garnatone Urban Health Centre,204020,Urban,GRZ,Urban Health Centre,Yes,15376,28.17758561,-12.73903975
Copperbelt,Kitwe,Hillview Medical Centre, Hillview Medical Centre,204056,Urban,Private,Level 1 Hospital District,Yes,,28.22081954,-12.80249091
Copperbelt,Kitwe,Ipusukilo UHC, Ipusukilo Urban Health Centre,204021,Urban,GRZ,Urban Health Centre,Yes,35605,28.2465566,-12.77897646
Copperbelt,Kitwe,Itimpi UHC, Itimpi Urban Health Centre,204022,Peri-Urban,GRZ,Urban Health Centre,Yes,10501,28.17217287,-12.74232925
Copperbelt,Kitwe,Kakolo RHC, Kakolo Rural Health Centre,204062,Rural,GRZ,Rural Health Centre,Yes,,28.337615,-12.92754167
Copperbelt,Kitwe,Kamakonde RHC, Kamakonde Rural Health Centre,204007,Urban,GRZ,Urban Health Centre,Yes,7900,28.14511835,-12.83147489
Copperbelt,Kitwe,Kamfinsa UHC, Kamfinsa Urban Health Centre,204023,Peri-Urban,GRZ,Urban Health Centre,Yes,,28.33406408,-12.87293802
Copperbelt,Kitwe,Kamitondo UHC, Kamitondo Urban Health Centre,204024,Urban,GRZ,Urban Health Centre,Yes,17010,28.21633264,-12.79109111
Copperbelt,Kitwe,Kawama Kitwe UHC, Kawama Kitwe Urban Health Centre,204025,Urban,GRZ,Urban Health Centre,Yes,43502,28.20470612,-12.74993309
Copperbelt,Kitwe,Kcm Nkana Clinic, KCM Nkana Clinic,204060,Urban,Private,Urban Health Centre,Yes,,28.21183896,-12.82529779
Copperbelt,Kitwe,Kitwe Central Hospital HAHC, Kitwe Central Hospital HAHC,204001,Urban,GRZ,Level 3 Hospital Tertiary,Yes,,28.20866977,-12.79815899
Copperbelt,Kitwe,Kitwe Central Referral Hospital, Kitwe Central Referral Hospital,204045,Urban,GRZ,Level 3 Hospital Tertiary,Yes,,28.20909723,-12.79748134
Copperbelt,Kitwe,Kitwe College Of Education HP, Kitwe College of Education Health Post,204063,Urban,GRZ,Urban Health Centre,Yes,,28.19271057,-12.78386382
Copperbelt,Kitwe,Kitwe District Police Clinic, Kitwe District Police Clinic,204004,Urban,GRZ,Urban Health Centre,Yes,,28.21821149,-12.85283675
Copperbelt,Kitwe,Kitwe Vocation Training College HP, Kitwe Vocation Training College Health Post,204058,Urban,GRZ,Health Post,Yes,,28.19501851,-12.76168554
Copperbelt,Kitwe,Kwacha UHC, Kwacha Urban Health Centre,204026,Urban,GRZ,Urban Health Centre,Yes,33230,28.2231193,-12.78163207
Copperbelt,Kitwe,Luangwa UHC, Luangwa Urban Health Centre,204027,Urban,GRZ,Urban Health Centre,Yes,42961,28.25027651,-12.8818765
Copperbelt,Kitwe,Luongo HP, Luongo Health Post,204066,Rural,GRZ,Health Post,Yes,,28.15190994,-12.68616224
Copperbelt,Kitwe,Marshlands UHC,Marshlands UHC,204067,Urban,Private,Urban Health Centre,Yes,24292,28.22906116,-12.84199448
Copperbelt,Kitwe,Mef HP, MEF Health Post,204029,Urban,Private,Urban Health Centre,Yes,,28.1838333,-12.7794541
Copperbelt,Kitwe,Mindolo 1 UHC, Mindolo 1 Urban Health Centre,204089,Urban,GRZ,Urban Health Centre,Yes,18412,28.1808397,-12.78847607
Copperbelt,Kitwe,Mindolo 2 Clinic, Mindolo 2 (Mopani) Clinic,204034,Urban,Private,Urban Health Centre,Yes,,28.18342767,-12.79322187
Copperbelt,Kitwe,Misaka HP, Misaka Health Post (Kitwe),204080,Rural,GRZ,Health Post,Yes,2843,28.401997,-12.85336107
Copperbelt,Kitwe,Miseshi-Mindolo HP, Miseshi-Mindolo Health Post,204032,Urban,GRZ,Urban Health Centre,Yes,16437,28.1909869,-12.7982947
Copperbelt,Kitwe,Mpelembe Secondary School HP, Mpelembe Secondary School Health Post,204053,Urban,Private,Health Post,Yes,,28.25112283,-12.81820815
Copperbelt,Kitwe,Mulenga UHC, Mulenga Urban Health Centre,204051,Urban,GRZ,Urban Health Centre,Yes,39275,28.24352724,-12.86622623
Copperbelt,Kitwe,Mwaiseni UHC, Mwaiseni Urban Health Centre,204073,Urban,GRZ,Urban Health Centre,Yes,5102,28.24843291,-12.82373048
Copperbelt,Kitwe,Mwekera UHC, Mwekera Urban Health Centre,204047,Peri-Urban,GRZ,Urban Health Centre,Yes,5102,28.35619833,-12.85507308
Copperbelt,Kitwe,Natwange Clinic, Natwange (Mopani) Clinic,204037,Urban,Private,Urban Health Centre,Yes,,28.23632604,-12.83609
Copperbelt,Kitwe,Ndeke UHC, Ndeke Urban Health Centre,204035,Urban,GRZ,Urban Health Centre,Yes,49826,28.23725321,-12.85264407
Copperbelt,Kitwe,Ndeke Village Health Centre, Ndeke Village Health Centre,204036,Urban,GRZ,Urban Health Centre,Yes,,28.24638002,-12.83806777
Copperbelt,Kitwe,Nkana East UHC, Nkana East Urban Health Centre,204061,Urban,GRZ,Urban Health Centre,Yes,6140,28.229476,-12.82284533
Copperbelt,Kitwe,Occupational Health UHC, Occupational Health District Hospital,204071,Urban,Private,Urban Health Centre,Yes,,28.21312513,-12.84373289
Copperbelt,Kitwe,Ohmb UHC, OHMB Urban Health Centre,204070,Urban,GRZ,Urban Health Centre,Yes,45000,28.2091326,-12.8143754
Copperbelt,Kitwe,Progress Medical Centre, Progress Medical Centre,204059,Urban,Private,Level 1 Hospital District,Yes,,28.22515667,-12.80967052
Copperbelt,Kitwe,Riverside UHC, Riverside Urban Health Centre,204048,Urban,GRZ,Urban Health Centre,Yes,31182,28.23994368,-12.7920922
Copperbelt,Kitwe,SiNozam Friendship Hospital, SiNozam Friendship Hospital,204002,Urban,Private,Level 1 Hospital District,Yes,,28.21025821,-12.83056803
Copperbelt,Kitwe,Sos Kitwe Health Centre, SOS Kitwe Health Centre,204052,Urban,NGO,Urban Health Centre,Yes,,28.24770008,-12.87448551
Copperbelt,Kitwe,Springs Of Life Medical Centre, Springs of Life Medical Centre,204057,Urban,Private,Urban Health Centre,Yes,,28.21518016,-12.82585704
Copperbelt,Kitwe,Tinna Medical Centre, Tinna Medical Centre,204054,Urban,Private,Level 1 Hospital District,Yes,,28.20786769,-12.79553989
Copperbelt,Kitwe,Twatasha UHC, Twatasha Urban Health Centre (Kitwe),204049,Urban,GRZ,Urban Health Centre,Yes,30409,28.19129515,-12.75699653
Copperbelt,Kitwe,Wusakile D Clinic, Wusakile D4 (Mopani) Clinic,204040,Urban,Private,Urban Health Centre,Yes,,28.2133215,-12.84470263
Copperbelt,Kitwe,Wusakile Government Clinic, Wusakile Government Clinic,204050,Urban,GRZ,Urban Health Centre,Yes,25161,28.2182016,-12.85212246
Copperbelt,Kitwe,Wusakile Grz UHC, Wusakile GRZ Urban Health Centre,204078,Urban,GRZ,Urban Health Centre,Yes,2040,28.218245,-12.85279
Copperbelt,Kitwe,Wusakile Mine Hospital, Wusakile Mine Hospital,204003,Urban,Private,Level 1 Hospital District,Yes,,28.21228674,-12.84332254
Copperbelt,Kitwe,Zamtan UHC, Zamtan Urban Health Centre,204042,Urban,GRZ,Urban Health Centre,Yes,11059,28.28427216,-12.8746212
Copperbelt,Luanshya,73 Independence UHC, 73 Independence Urban Health Centre,205010,Urban,Private,Health Post,Yes,,28.4085145,-13.13103524
Copperbelt,Luanshya,Allessandras UHC, Allessandras Urban Health Centre,205034,Peri-Urban,GRZ,Urban Health Centre,Yes,,28.44181218,-13.1500031
Copperbelt,Luanshya,Chaisa UHC, Chaisa Urban Health Centre,205052,Urban,GRZ,Urban Health Centre,Yes,13960,28.36399295,-13.12801486
Copperbelt,Luanshya,Chifulube East Health Center,Chifulube East Health Center,205048,Peri-Urban,GRZ,Urban Health Centre,Yes,,28.46679126,-13.18527068
Copperbelt,Luanshya,Chilabula UHC, Chilabula Urban Health Centre,205035,Urban,GRZ,Urban Health Centre,Yes,,28.40053683,-13.177834
Copperbelt,Luanshya,Fisenge UHC, Fisenge Urban Health Centre,205013,Urban,GRZ,Urban Health Centre,Yes,,28.46517853,-13.0685554
Copperbelt,Luanshya,Franco UHC, Franco Urban Health Centre,205014,Urban,GRZ,Urban Health Centre,Yes,,28.43276184,-13.16258394
Copperbelt,Luanshya,Kafubu Block UHC, Kafubu Block Urban Health Centre,205016,Peri-Urban,GRZ,Urban Health Centre,Yes,,28.53279557,-13.15260545
Copperbelt,Luanshya,Kampelembe HP, Kampelembe Health Post,205061,Rural,GRZ,Health Post,Yes,,28.24547079,-13.12730897
Copperbelt,Luanshya,Kapenda HP, Kapenda Health Post,205063,Rural,GRZ,Health Post,Yes,,28.4821979,-13.123689
Copperbelt,Luanshya,Kapupulu Chawama HP, Kapupulu Chawama Health Post,205065,Peri-Urban,GRZ,Health Post,Yes,,28.41600065,-13.04862977
Copperbelt,Luanshya,Kasongo HP, Kasongo Health Post,205047,Peri-Urban,GRZ,Health Post,Yes,,28.52976906,-13.02842909
Copperbelt,Luanshya,Kawama UHC, Kawama Urban Health Centre (Lua),205017,Peri-Urban,GRZ,Urban Health Centre,Yes,,28.31015883,-13.12113075
Copperbelt,Luanshya,Luanshya Mine Hospital, Luanshya Mine Hospital,205001,Urban,Private,Health Post,Yes,,28.40510183,-13.12971081
Copperbelt,Luanshya,Main UHC, Main Urban Health Centre,205021,Urban,GRZ,Urban Health Centre,Yes,,28.419426,-13.13952392
Copperbelt,Luanshya,Malaika Clinic, Malaika Clinic,205037,Urban,GRZ,Urban Health Centre,Yes,,28.41078646,-13.18047409
Copperbelt,Luanshya,Mansansa HP, Mansansa Health Post,205042,Peri-Urban,GRZ,Health Post,Yes,,28.49291065,-13.01375942
Copperbelt,Luanshya,Maposa HP, Maposa Health Post,205062,Peri-Urban,GRZ,Health Post,Yes,,28.39546231,-12.99953499
Copperbelt,Luanshya,Mikomfwa Health Centre, Mikomfwa Health Centre,205019,Urban,GRZ,Urban Health Centre,Yes,,28.42436587,-13.14942081
Copperbelt,Luanshya,Mikomfwa UHC, Mikomfwa Urban Health Centre,205020,Urban,Private,Urban Health Centre,Yes,,28.42010686,-13.15410647
Copperbelt,Luanshya,Mpatamatu Section 26 UHC, Mpatamatu Section 26 Urban Health Centre,205028,Urban,GRZ,Urban Health Centre,Yes,,28.31027432,-13.0991259
Copperbelt,Luanshya,New Town UHC, New Town Urban Health Centre,205032,Urban,GRZ,Urban Health Centre,Yes,,28.4047062,-13.11481634
Copperbelt,Luanshya,Nkulumashiba HP, Nkulumashiba Health Post,205045,Peri-Urban,GRZ,Health Post,Yes,,28.2035907,-13.07941425
Copperbelt,Luanshya,Poleline HP, Poleline Health Post,205053,Peri-Urban,GRZ,Health Post,Yes,,28.44642268,-13.0084499
Copperbelt,Luanshya,Roan Antelope Referral Hospital, Roan Antelope Referral Hospital,205002,Urban,GRZ,Level 2 Hospital Provincial,Yes,,28.38747906,-13.13689633
Copperbelt,Luanshya,Section 2 HP,Section 2 Health Post,205060,Urban,GRZ,Health Post,Yes,,28.37960464,-13.13434989
Copperbelt,Luanshya,Section 23 UHC, Section 23 Urban Health Centre,205026,Urban,Private,Urban Health Centre,Yes,,28.32081634,-13.10601119
Copperbelt,Luanshya,Section 25 UHC,Section 25 UHC,205049,Urban,GRZ,Urban Health Centre,Yes,,28.3178151,-13.10948454
Copperbelt,Luanshya,Section 4 Clinic,Section 4 Clinic,205058,Urban,Private,Urban Health Centre,Yes,3467,28.38040732,-13.12996055
Copperbelt,Luanshya,Section 5 UHC, Section 5 Urban Health Centre,205023,Urban,Private,Health Post,Yes,,28.380433,-13.13002351
Copperbelt,Luanshya,Thomson District Hospital, Thomson District Hospital,205069,Urban,GRZ,Level 1 Hospital District,Yes,,28.43017551,-13.14046551
Copperbelt,Luanshya,Tvtc UHC, TVTC Urban Health Centre,205031,Urban,GRZ,Urban Health Centre,Yes,,28.4296536,-13.12568465
Copperbelt,Luanshya,Zamefa Clinic, Zamefa Clinic,205036,Urban,Private,Urban Health Centre,Yes,,28.4167646,-13.14403347
Copperbelt,Lufwanyama,Bulaya RHC, Bulaya Rural Health Centre,206010,Rural,GRZ,Health Post,Yes,4905,28.14642227,-12.9571686
Copperbelt,Lufwanyama,Chantete RHC, Chantete Rural Health Centre,206026,Rural,GRZ,Health Post,Yes,2161,28.0448862,-12.99897093
Copperbelt,Lufwanyama,Chikabuke RHC, Chikabuke Rural Health Centre,206012,Rural,GRZ,Rural Health Centre,Yes,2943,27.71995786,-13.13575651
Copperbelt,Lufwanyama,Chinemu RHC, Chinemu Rural Health Centre,206013,Rural,GRZ,Rural Health Centre,Yes,2943,27.49620976,-12.70337389
Copperbelt,Lufwanyama,Fungulwe RHC, Fungulwe Rural Health Centre,206014,Rural,GRZ,Rural Health Centre,Yes,5886,27.45086859,-13.18189155
Copperbelt,Lufwanyama,Kamakanga RHC, Kamakanga Rural Health Centre,206027,Rural,GRZ,Health Post,Yes,2452,28.09197876,-13.10823801
Copperbelt,Lufwanyama,Kansoka RHC, Kansoka Rural Health Centre,206024,Rural,GRZ,Health Post,Yes,2649,27.70262032,-12.63076004
Copperbelt,Lufwanyama,Kapilamikwa HP, Kapilamikwa Health Post,206034,Rural,GRZ,Rural Health Centre,Yes,3924,27.5144402,-12.92478275
Copperbelt,Lufwanyama,Kasanda HP,Kasanda Health Post,206030,Rural,GRZ,Health Post,Yes,,27.47424211,-12.57529995
Copperbelt,Lufwanyama,Lufwanyama District Hospital, Lufwanyama District Hospital,206001,Rural,GRZ,Level 1 Hospital District,Yes,98094,27.63671754,-12.85805631
Copperbelt,Lufwanyama,Lumpuma RHC, Lumpuma Rural Health Centre,206016,Rural,GRZ,Rural Health Centre,Yes,,27.9119026,-13.12580116
Copperbelt,Lufwanyama,Lumwana HP,Lumwana Health Post,206031,Rural,GRZ,Health Post,Yes,,27.23838083,-12.95137904
Copperbelt,Lufwanyama,Mbalango HP, Mbalango Health Post,206028,Rural,GRZ,Health Post,Yes,1962,27.5282763,-12.81133611
Copperbelt,Lufwanyama,Mibenge HP, Mibenge Health Post,206023,Rural,GRZ,Health Post,Yes,3237,27.91052009,-12.96839191
Copperbelt,Lufwanyama,Mibila RHC, Mibila Rural Health Centre,206025,Rural,GRZ,Health Post,Yes,2415,27.55048204,-12.61159121
Copperbelt,Lufwanyama,Milopa HP,Milopa Health Post,206032,Rural,GRZ,Health Post,Yes,,27.6248248,-12.55996384
Copperbelt,Lufwanyama,Mukumbo RHC, Mukumbo Rural Health Centre,206017,Rural,GRZ,Health Post,Yes,6475,28.07933498,-13.29484847
Copperbelt,Lufwanyama,Mukutuma RHC, Mukutuma Rural Health Centre,206018,Rural,GRZ,Rural Health Centre,Yes,7848,27.81718676,-12.97134674
Copperbelt,Lufwanyama,Mushingashi RHC, Mushingashi Rural Health Centre,206019,Rural,GRZ,Rural Health Centre,Yes,6867,27.07479087,-12.85525336
Copperbelt,Lufwanyama,Nkana HP, Nkana Health Post,206015,Rural,GRZ,Rural Health Centre,Yes,3924,28.09079886,-12.8791989
Copperbelt,Lufwanyama,Shimukunami RHC, Shimukunami Rural Health Centre,206020,Rural,GRZ,Rural Health Centre,Yes,6867,27.67654635,-12.85391286
Copperbelt,Lufwanyama,St Joseph RHC, St Joseph Rural Health Centre,206021,Rural,Faith Based,Rural Health Centre,Yes,11477,28.01319974,-12.89155978
Copperbelt,Lufwanyama,St Marys RHC, St Marys Rural Health Centre,206022,Rural,GRZ,Rural Health Centre,Yes,11281,27.37046533,-12.8939666
Copperbelt,Masaiti,Bangwe RHC, Bangwe Rural Health Centre,207009,Rural,GRZ,Health Post,Yes,,28.80811833,-13.20538001
Copperbelt,Masaiti,Chikumbi RHC, Chikumbi Rural Health Centre,207010,Rural,GRZ,Rural Health Centre,Yes,,28.65512726,-12.87500046
Copperbelt,Masaiti,Chilese RHC, Chilese Rural Health Centre,207011,Rural,GRZ,Rural Health Centre,Yes,,28.67518217,-13.55929913
Copperbelt,Masaiti,ChiNondo RHC, ChiNondo Rural Health Centre,207013,Rural,GRZ,Rural Health Centre,Yes,,28.52157612,-13.43922948
Copperbelt,Masaiti,Chiwala HP, Chiwala Health Post,207012,Rural,GRZ,Health Post,Yes,,28.72126295,-13.00932845
Copperbelt,Masaiti,Chondwe RHC, Chondwe Rural Health Centre,207014,Rural,GRZ,Rural Health Centre,Yes,,28.78061633,-13.16966828
Copperbelt,Masaiti,Fiwale RHC, Fiwale Rural Health Centre,207015,Rural,GRZ,Rural Health Centre,Yes,,28.71743748,-13.20859548
Copperbelt,Masaiti,Kafulafuta Grz RHC, Kafulafuta GRZ Rural Health Centre,207017,Rural,GRZ,Rural Health Centre,Yes,,28.56963757,-13.33554539
Copperbelt,Masaiti,Kafulafuta RHC, Kafulafuta Rural Health Centre,207016,Rural,GRZ,Rural Health Centre,Yes,,28.32954896,-13.25448523
Copperbelt,Masaiti,Kaloko RHC, Kaloko Rural Health Centre,207018,Rural,GRZ,Rural Health Centre,Yes,,28.5253742,-13.5527725
Copperbelt,Masaiti,Kambowa RHC, Kambowa Rural Health Centre,207031,Rural,GRZ,Rural Health Centre,Yes,,28.80121602,-13.10596501
Copperbelt,Masaiti,Kamifungo HP, Kamifungo Health Post,207019,Rural,GRZ,Rural Health Centre,Yes,,28.2036028,-13.21419899
Copperbelt,Masaiti,Kashitu RHC, Kashitu Rural Health Centre,207020,Rural,GRZ,Rural Health Centre,Yes,,28.66431141,-13.68206979
Copperbelt,Masaiti,Katonte Rural  HP,Katonte Rural  Health Post,207038,Rural,GRZ,Health Post,Yes,,28.97986557,-13.47370811
Copperbelt,Masaiti,LumaNo Rural HP,LumaNo Rural Health Post,20070015,Rural,GRZ,Health Post,Yes,,28.69551015,-13.14315305
Copperbelt,Masaiti,Lupiya HP, Lupiya Health Post,207025,Rural,GRZ,Health Post,Yes,,28.81070067,-13.01060187
Copperbelt,Masaiti,Masaiti Boarding HP,Masaiti Boarding Health Post,207033,Rural,GRZ,Health Post,Yes,,28.41776467,-13.28543693
Copperbelt,Masaiti,Masaiti Boma RHC, Masaiti Boma Rural Health Centre,207021,Rural,GRZ,Rural Health Centre,Yes,,28.41526007,-13.32166609
Copperbelt,Masaiti,Masaiti Council RHC, Masaiti Council Rural Health Centre,2070001,Rural,GRZ,Rural Health Centre,Yes,,28.40570083,-13.25959573
Copperbelt,Masaiti,Masaiti District Hospital, Masaiti District Hospital,207022,Rural,GRZ,Level 1 Hospital District,Yes,,28.68781612,-13.3340159
Copperbelt,Masaiti,Matipa RHC, Matipa Rural Health Centre,207034,Rural,GRZ,Health Post,Yes,,28.67390401,-13.46798652
Copperbelt,Masaiti,Michinka HP, Michinka Health Post,20070022,Rural,GRZ,Health Post,Yes,,28.61942396,-13.4143626
Copperbelt,Masaiti,Miengwe RHC, Miengwe Rural Health Centre,207023,Rural,GRZ,Rural Health Centre,Yes,,28.73612988,-13.44841454
Copperbelt,Masaiti,Miputu HP,Miputu Health Post,207035,Rural,GRZ,Health Post,Yes,,28.28427094,-13.20342443
Copperbelt,Masaiti,Mishikishi RHC, Mishikishi Rural Health Centre,207024,Rural,GRZ,Rural Health Centre,Yes,,28.67713566,-13.38446673
Copperbelt,Masaiti,Mukolwe RHC, Mukolwe Rural Health Centre,207036,Rural,GRZ,Health Post,Yes,,28.59792471,-13.18359689
Copperbelt,Masaiti,Mupapa RHC, Mupapa Rural Health Centre,207030,Rural,GRZ,Rural Health Centre,Yes,,28.70151622,-13.29688697
Copperbelt,Masaiti,Mutaba UHC, Mutaba Rural Health Centre,207026,Rural,GRZ,Rural Health Centre,Yes,,28.82722225,-13.29638856
Copperbelt,Masaiti,Njelemani RHC, Njelemani Rural Health Centre,207027,Rural,GRZ,Rural Health Centre,Yes,,28.73560946,-12.97513919
Copperbelt,Masaiti,Silangwa HP, Silangwa Health Post,207032,Rural,GRZ,Health Post,Yes,,28.79955987,-13.48342821
Copperbelt,Mpongwe,Butikili HP, Butikili Health Post,208025,Rural,GRZ,Health Post,Yes,,28.38431991,-13.42683863
Copperbelt,Mpongwe,Bwembelelo HP ,Bwembelelo Health Post ,208032,Rural,GRZ,Health Post,Yes,,28.22742543,-13.52481642
Copperbelt,Mpongwe,Chibuli HP, Chibuli Health Post,208023,Rural,GRZ,Health Post,Yes,,28.33566246,-13.39541023
Copperbelt,Mpongwe,Chimbofuma  HP,Chimbofuma  Health Post,208034,Rural,GRZ,Health Post,Yes,,27.51825381,-13.64792927
Copperbelt,Mpongwe,Chipese  HP,Chipese  Health Post,208035,Peri-Urban,GRZ,Health Post,Yes,,28.11777052,-13.51933889
Copperbelt,Mpongwe,Chisanga HP,Chisanga Health Post,208027,Rural,GRZ,Health Post,Yes,,27.83660833,-13.83227167
Copperbelt,Mpongwe,Chisapa  HP,Chisapa  Health Post,208026,Rural,GRZ,Health Post,Yes,,28.5040357,-13.67345392
Copperbelt,Mpongwe,Ipumbu RHC, Ipumbu Rural Health Centre,208010,Rural,GRZ,Rural Health Centre,Yes,,27.84498167,-13.637755
Copperbelt,Mpongwe,Kalweo RHC, Kalweo Rural Health Centre,208021,Rural,GRZ,Rural Health Centre,Yes,,28.64446091,-13.80242145
Copperbelt,Mpongwe,Kangololo HP,Kangololo Health Post,208036,Rural,GRZ,Health Post,Yes,,27.877995,-13.76423
Copperbelt,Mpongwe,Kanyenda RHC, Kanyenda Rural Health Centre,208011,Rural,GRZ,Rural Health Centre,Yes,,28.23784741,-13.43514988
Copperbelt,Mpongwe,Kasamba RHC, Kasamba Rural Health Centre,208012,Rural,GRZ,Rural Health Centre,Yes,,28.26184446,-13.26246645
Copperbelt,Mpongwe,Luamabwe RHC, Luamabwe Rural Health Centre,208024,Rural,GRZ,Health Post,Yes,,28.50467163,-13.78536293
Copperbelt,Mpongwe,Luankuni HP, Luankuni Health Post,208028,Rural,GRZ,Health Post,Yes,,28.40957835,-13.59177948
Copperbelt,Mpongwe,Luswishi Rural HP, Luswishi Rural Health Post,208022,Rural,GRZ,Health Post,Yes,,27.38709739,-13.81076228
Copperbelt,Mpongwe,Lyobeka HP, Lyobeka Health Post,208029,Rural,GRZ,Health Post,Yes,,28.40937015,-13.36770573
Copperbelt,Mpongwe,Machiya RHC, Machiya Rural Health Centre,208013,Rural,GRZ,Rural Health Centre,Yes,,27.61492616,-13.6465048
Copperbelt,Mpongwe,Mfulabunga RHC, Mfulabunga Rural Health Centre,208037,Rural,GRZ,Health Post,Yes,,28.03223167,-13.495105
Copperbelt,Mpongwe,Mikata RHC, Mikata Rural Health Centre,208014,Rural,GRZ,Rural Health Centre,Yes,,28.34633111,-13.55892624
Copperbelt,Mpongwe,Mpongwe Mission Hospital, Mpongwe Mission Hospital,208001,Rural,Faith Based,Level 1 Hospital District,Yes,,28.16314152,-13.51568165
Copperbelt,Mpongwe,Muchindushi HP, Muchindushi Health Post,208030,Rural,GRZ,Health Post,Yes,,28.141825,-13.78488167
Copperbelt,Mpongwe,Munkumpu HP,Munkumpu Health Post,208015,Rural,GRZ,Health Post,Yes,,27.81463333,-13.58827333
Copperbelt,Mpongwe,Munkumpu RHC, Munkumpu Rural Health Centre,20080019,Rural,Private,Rural Health Centre,Yes,2588,27.71793053,-13.63268225
Copperbelt,Mpongwe,Munkumpu Sub RHC,Munkumpu Sub RHC,20080020,Rural,Private,Rural Health Centre,Yes,2588,27.76212688,-13.67636609
Copperbelt,Mpongwe,Mushipashi RHC, Mushipashi Rural Health Centre,208020,Rural,GRZ,Health Post,Yes,,27.88742167,-13.86712667
Copperbelt,Mpongwe,Mushiwe Zfds RHC, Mushiwe ZFDS Rural Health Centre,208016,Rural,GRZ,Health Post,Yes,,27.52479119,-13.76141097
Copperbelt,Mpongwe,Mwinuna RHC, Mwinuna Rural Health Centre,208017,Rural,GRZ,Rural Health Centre,Yes,,28.03662333,-13.880235
Copperbelt,Mpongwe,Nampamba RHC, Nampamba Rural Health Centre,208018,Rural,Private,Rural Health Centre,Yes,,28.07469341,-13.57387318
Copperbelt,Mpongwe,Ntunda HP,Ntunda Health Post,208039,Rural,GRZ,Health Post,Yes,,28.26101214,-13.82922451
Copperbelt,Mpongwe,St Anthony RHC, St Anthony Rural Health Centre,208019,Rural,Faith Based,Rural Health Centre,Yes,,27.93332758,-13.45201469
Copperbelt,Mpongwe,St Theresa Mission Hospital, St Theresa Mission Hospital,208040,Rural,Faith Based,Level 1 Hospital District,Yes,,28.42077306,-13.35400425
Copperbelt,Mpongwe,St Theresas HAHC, St Theresas Hospital Affiliated Health Centre,208002,Urban,Faith Based,Urban Health Centre,Yes,9704,28.42082469,-13.35400367
Copperbelt,Mufulira,14 Miles HP, 14 Miles Health Post,2090450,Rural,GRZ,Rural Health Centre,Yes,2826,28.41275959,-12.67761043
Copperbelt,Mufulira,Buteko UHC, Buteko Urban Health Centre,2090100,Urban,GRZ,Urban Health Centre,Yes,8712,28.24781622,-12.58632528
Copperbelt,Mufulira,Butondo C UHC, Butondo C Urban Health Centre,2090110,Peri-Urban,GRZ,Urban Health Centre,Yes,4880,28.20267951,-12.52005886
Copperbelt,Mufulira,Chibolya UHC, Chibolya Urban Health Centre,2090130,Urban,GRZ,Urban Health Centre,Yes,11683,28.25590333,-12.56110667
Copperbelt,Mufulira,Kafironda HP, Kafironda Health Post,2090950,Urban,GRZ,Health Post,Yes,2038,28.18341833,-12.62870833
Copperbelt,Mufulira,Kamuchanga District Hospital, Kamuchanga District Hospital,2090010,Urban,GRZ,Level 1 Hospital District,Yes,11150,28.24533384,-12.5768255
Copperbelt,Mufulira,Kamuchanga HAHC, Kamuchanga Hospital Affiliated Health Centre,2090011,Urban,GRZ,Urban Health Centre,Yes,,28.24527141,-12.57681326
Copperbelt,Mufulira,Kamuchanga UHC, Kamuchanga Urban Health Centre,2090150,Urban,GRZ,Urban Health Centre,Yes,,28.24318749,-12.56701865
Copperbelt,Mufulira,Kansuswa RHC, Kansuswa Rural Health Centre,2090160,Urban,GRZ,Urban Health Centre,Yes,6442,28.208215,-12.59818
Copperbelt,Mufulira,Kasalya RHC,Kasalya RHC,2090370,Rural,GRZ,Rural Health Centre,Yes,,28.38738659,-12.65363954
Copperbelt,Mufulira,Kawama West HP, Kawama West Health Post,2090330,Urban,GRZ,Urban Health Centre,Yes,7220,28.21775667,-12.56983833
Copperbelt,Mufulira,Luansobe RHC, Luansobe Rural Health Centre,2090340,Peri-Urban,GRZ,Rural Health Centre,Yes,9212,28.188979,-12.51232454
Copperbelt,Mufulira,Malcolm Watson HAHC, Malcolm Watson Hospital Affiliated Health Centre,2090390,Urban,Private,Level 1 Hospital District,Yes,54000,28.2495414,-12.5470633
Copperbelt,Mufulira,Malcolm Watson Hospital, Malcolm Watson Hospital,2090270,Urban,Private,Level 3 Hospital Tertiary,Yes,,28.24980042,-12.54519565
Copperbelt,Mufulira,Mokambo RHC, Mokambo Rural Health Centre,2090170,Peri-Urban,GRZ,Urban Health Centre,Yes,6526,28.33984301,-12.43639586
Copperbelt,Mufulira,Mufulira Clinic 1 UHC, Mufulira Clinic 1 Urban Health Centre,2090180,Urban,GRZ,Urban Health Centre,Yes,12023,28.23642974,-12.54762837
Copperbelt,Mufulira,Mufulira Clinic 2 UHC, Mufulira Clinic 2 Urban Health Centre,2090190,Urban,Private,Urban Health Centre,Yes,9384,28.2258083,-12.54814233
Copperbelt,Mufulira,Mufulira Clinic 3 UHC, Mufulira Clinic 3 Urban Health Centre,2090200,Peri-Urban,GRZ,Urban Health Centre,Yes,9889,28.22767963,-12.54062104
Copperbelt,Mufulira,Mufulira Clinic 5 UHC, Mufulira Clinic 5 Urban Health Centre,2090220,Urban,GRZ,Urban Health Centre,Yes,17992,28.22484982,-12.53215787
Copperbelt,Mufulira,Mufulira Clinic 6 UHC, Mufulira Clinic 6 Urban Health Centre,2090230,Urban,Private,Urban Health Centre,Yes,8459,28.23845888,-12.55096416
Copperbelt,Mufulira,Mufulira Clinic 7 UHC, Mufulira Clinic 7 Urban Health Centre,2090240,Urban,GRZ,Urban Health Centre,Yes,4323,28.20082238,-12.51949242
Copperbelt,Mufulira,Mufulira Clinic 9 UHC, Mufulira Clinic 9 Urban Health Centre,2090440,Urban,Private,Urban Health Centre,Yes,3801,28.27186905,-12.5609644
Copperbelt,Mufulira,Mufulira Teachers College HP, Mufulira Teachers College Health Post,2090360,Urban,GRZ,Health Post,Yes,,28.232225,-12.56387167
Copperbelt,Mufulira,Mupambe HP,Mupambe Health Post,2090380,Peri-Urban,GRZ,Health Post,Yes,,28.27325236,-12.54000418
Copperbelt,Mufulira,Mupena HP, Mupena Health Post,2090960,Rural,GRZ,Health Post,Yes,3710,28.39977329,-12.55143958
Copperbelt,Mufulira,Murundu RHC, Murundu Rural Health Centre,2090280,Peri-Urban,GRZ,Urban Health Centre,Yes,10275,28.31936435,-12.48643264
Copperbelt,Mufulira,Mutundu RHC, Mutundu Rural Health Centre,2090290,Rural,GRZ,Rural Health Centre,Yes,2510,28.35107954,-12.59338887
Copperbelt,Mufulira,Ronald Ross HAHC, Ronald Ross Hospital Affiliated Health Centre,209003,Urban,GRZ,Level 2 Hospital Provincial,Yes,,28.2421915,-12.5482501
Copperbelt,Mufulira,Ronald Ross Hospital, Ronald Ross Hospital,2090030,Urban,GRZ,Urban Health Centre,Yes,2966,28.2421616,-12.54822663
Copperbelt,Mufulira,Triple S HP, Triple S Health Post,2090034,Rural,GRZ,Rural Health Centre,Yes,,28.11493183,-12.5560441
Copperbelt,Mufulira,Twatasha UHC, Twatasha Urban Health Centre,2090320,Urban,GRZ,Urban Health Centre,Yes,8604,28.26733327,-12.57341182
Copperbelt,Ndola,21 Miles HP, 21 Miles Health Post,210069,Peri-Urban,GRZ,Health Post,Yes,1500,28.46853617,-12.75245104
Copperbelt,Ndola,Arthur Davison Hospital, Arthur Davison Hospital,210001,Urban,GRZ,Level 3 Hospital Tertiary,Yes,,28.64721196,-12.94800022
Copperbelt,Ndola,Bank Of Zambia UHC, Bank of Zambia Urban Health Centre,210011,Urban,Private,Urban Health Centre,Yes,,28.64974167,-12.97083
Copperbelt,Ndola,Catholic Diocese HP,Catholic Diocese Health Post,210071,Urban,Faith Based,Health Post,Yes,,28.62709211,-13.02005091
Copperbelt,Ndola,Chichetekelo UHC, Chichetekelo Urban Health Centre,210017,Urban,Faith Based,Urban Health Centre,Yes,,28.6164881,-13.00012335
Copperbelt,Ndola,Chilanga Cement UHC, Chilanga Cement Urban Health Centre,210013,Urban,Private,Rural Health Centre,No,,28.68534067,-12.97659158
Copperbelt,Ndola,Chinan UHC, CHINAN Urban Health Centre,210014,Urban,Private,Urban Health Centre,Yes,,28.6466491,-12.96882446
Copperbelt,Ndola,Chipokota Mayamba UHC, Chipokota Mayamba Urban Health Centre,210012,Urban,GRZ,Health Post,Yes,53574,28.60939833,-12.93191667
Copperbelt,Ndola,Chipolopolo HP,Chipolopolo Health Post,210083,Rural,GRZ,Health Post,No,,28.4664558,-12.8314796
Copperbelt,Ndola,Daghamskhoeld HP, Daghamskhoeld Health Post,210066,Urban,GRZ,Health Post,Yes,,28.59667861,-12.96912114
Copperbelt,Ndola,Dola Hill UHC, Dola Hill Urban Health Centre,210073,Urban,GRZ,Urban Health Centre,Yes,8548,28.59434015,-12.9607682
Copperbelt,Ndola,Dr. Bhatts UHC,Dr. Bhatts UHC,210074,Urban,Private,Urban Health Centre,Yes,,28.64581788,-12.97580347
Copperbelt,Ndola,Healton Clinic UHC,Healton Clinic UHC,210076,Urban,Private,Urban Health Centre,Yes,,28.64631999,-12.97536968
Copperbelt,Ndola,Hilltop Hospital, Hilltop Hospital,210055,Urban,Private,Level 1 Hospital District,Yes,,28.63947401,-12.97742292
Copperbelt,Ndola,Indeni UHC, Indeni Urban Health Centre,210019,Urban,GRZ,Urban Health Centre,Yes,,28.67858684,-13.03795107
Copperbelt,Ndola,Itawa Urban Health Centre, Itawa Urban  Health Centre,210061,Urban,GRZ,Urban Health Centre,Yes,6000,28.65091324,-12.99137919
Copperbelt,Ndola,Kabushi UHC, Kabushi Urban Health Centre,210018,Urban,GRZ,Urban Health Centre,Yes,28317,28.62820483,-13.00146617
Copperbelt,Ndola,Kalewa Barracks UHC, Kalewa Barracks Urban Health Centre,210031,Urban,Military,Health Post,Yes,9047,28.63448167,-12.94681333
Copperbelt,Ndola,Kaloko UHC, Kaloko Urban Health Centre,210020,Urban,GRZ,Rural Health Centre,Yes,16500,28.63638612,-13.03879936
Copperbelt,Ndola,Kamensopanshi HP, Kamensopanshi Health Post,210057,Peri-Urban,GRZ,Health Post,Yes,,28.49407032,-12.97892654
Copperbelt,Ndola,Kaniki UHC, Kaniki Urban Health Centre,210021,Urban,GRZ,Urban Health Centre,Yes,10337,28.53224271,-12.86054187
Copperbelt,Ndola,Kansheshi Prison UHC, Kansheshi Prison Urban Health Centre,210022,Urban,GRZ,Urban Health Centre,Yes,11647,28.62507167,-12.94328667
Copperbelt,Ndola,Kantolomba HP Kansime Anne. HP,Kantolomba Health Post Kansime Anne. Health Post,210054,Urban,NGO,Health Post,No,,28.60101939,-13.00757203
Copperbelt,Ndola,Katondo Health Centre, Katondo Health Centre,210053,Urban,GRZ,Health Post,Yes,4000,28.69767423,-13.02220908
Copperbelt,Ndola,Kavu UHC, Kavu Urban Health Centre,210023,Peri-Urban,Faith Based,Level 1 Hospital District,Yes,1500,28.66689961,-13.09352553
Copperbelt,Ndola,Kawama UHC, Kawama Urban Health Centre (Ndola),210024,Urban,GRZ,Urban Health Centre,Yes,22136,28.61804,-12.91422833
Copperbelt,Ndola,Kopa Urban Health Centre, Kopa Urban  Health Centre,210052,Urban,Private,Urban Health Centre,Yes,,28.63843184,-12.96697183
Copperbelt,Ndola,Lubuto UHC, Lubuto Urban Health Centre,210027,Urban,GRZ,Urban Health Centre,Yes,51112,28.6158029,-13.00752626
Copperbelt,Ndola,Madando HP, Madando Health Post,210063,Rural,GRZ,Health Post,Yes,1000,28.58749731,-13.02510354
Copperbelt,Ndola,Mahatma Gandhi UHC, Mahatma Gandhi Urban Health Centre,210015,Urban,GRZ,Urban Health Centre,Yes,43556,28.65767333,-12.94453667
Copperbelt,Ndola,Masala Main UHC, Masala Main Urban Health Centre,210029,Urban,GRZ,Urban Health Centre,Yes,10944,28.64268758,-12.9953053
Copperbelt,Ndola,Masala New UHC, Masala New Urban Health Centre,210030,Urban,GRZ,Urban Health Centre,Yes,45721,28.64072174,-13.00377424
Copperbelt,Ndola,Maternal Child Health UHC,Maternal Child Health UHC,210079,Urban,GRZ,Urban Health Centre,Yes,53574,28.61117264,-12.935536
Copperbelt,Ndola,Mery Berg UHC, Mery Berg Urban Health Centre,210050,Urban,Private,Urban Health Centre,Yes,,28.63379489,-12.96185629
Copperbelt,Ndola,Miramar UHC, Miramar Urban Health Centre,210089,Urban,Private,Urban Health Centre,Yes,,28.6282891,-12.95559211
Copperbelt,Ndola,Misaka HP, Misaka Health Post (Ndola),210060,Peri-Urban,GRZ,Health Post,Yes,1000,28.52997823,-12.92343678
Copperbelt,Ndola,Misundu HP,Misundu Health Post,210062,Urban,GRZ,Health Post,Yes,,28.63977544,-12.89092203
Copperbelt,Ndola,Mpendwa UHC, Mpendwa Urban Health Centre,210049,Urban,Private,Urban Health Centre,Yes,,28.64288818,-12.97908719
Copperbelt,Ndola,Mushili UHC, Mushili Urban Health Centre,210032,Urban,GRZ,Urban Health Centre,Yes,5742,28.62735749,-13.01718572
Copperbelt,Ndola,Nalwange Family Clinic, Nalwange Family Clinic,210035,Urban,Private,Urban Health Centre,No,,28.61359051,-12.93662839
Copperbelt,Ndola,Ndeke UHC, Ndeke Urban Health Centre (Ndola),210034,Urban,GRZ,Urban Health Centre,Yes,12500,28.66064941,-13.00312571
Copperbelt,Ndola,Ndola Airport Clinic,Ndola Airport Clinic,210068,Urban,GRZ,Urban Health Centre,Yes,,28.65788269,-12.99539049
Copperbelt,Ndola,Ndola Central HAHC, Ndola Central Hospital Affiliated Health Centre,210070,Rural,GRZ,Urban Health Centre,Yes,,28.63363808,-12.97079798
Copperbelt,Ndola,Ndola Central Hospital, Ndola Central Hospital,210002,Urban,GRZ,Level 3 Hospital Tertiary,Yes,,28.6336707,-12.97018895
Copperbelt,Ndola,Ndola Lime UHC, Ndola Lime Urban Health Centre,210037,Urban,GRZ,Health Post,Yes,,28.70203435,-12.9821935
Copperbelt,Ndola,Nkhwazi UHC, Nkhwazi Urban Health Centre,210036,Urban,GRZ,Urban Health Centre,Yes,35662,28.64256333,-12.94012833
Copperbelt,Ndola,Nortec UHC, Nortec Urban Health Centre,210072,Urban,GRZ,Urban Health Centre,Yes,,28.630335,-12.95700833
Copperbelt,Ndola,Northern Breweries UHC, Northern Breweries Urban Health Centre,210051,Urban,Private,Urban Health Centre,Yes,,28.6503,-12.95879833
Copperbelt,Ndola,Northern Command Military Hospital, Northern Command Military Hospital,210090,Urban,Military,Level 3 Hospital Tertiary,Yes,1008,28.65381509,-12.99124224
Copperbelt,Ndola,Peter Singogo Police UHC, Peter Singogo Police Urban Health Centre,210041,Urban,GRZ,Urban Health Centre,Yes,4080,28.63038412,-12.97134944
Copperbelt,Ndola,Railway Surgery UHC, Railway Surgery Urban Health Centre,210039,Urban,GRZ,Urban Health Centre,Yes,,28.6450057,-12.97052554
Copperbelt,Ndola,Roma HP, Roma Health Post,210059,Rural,GRZ,Health Post,Yes,1420,28.54715412,-13.09929663
Copperbelt,Ndola,Sathya Sai UHC, Sathya Sai Urban Health Centre,210040,Urban,GRZ,Urban Health Centre,Yes,21387,28.61968333,-12.92917167
Copperbelt,Ndola,Sunga Bukanda HP,Sunga Bukanda Health Post,210065,Rural,GRZ,Health Post,No,,28.7395005,-13.0390517
Copperbelt,Ndola,Tdrc UHC, TDRC Urban Health Centre,210046,Urban,GRZ,Urban Health Centre,Yes,,28.63395398,-12.97037815
Copperbelt,Ndola,TelNor UHC, TelNor Urban Health Centre,210044,Urban,Private,Urban Health Centre,Yes,,28.64710372,-12.97272466
Copperbelt,Ndola,Tug-Argan UHC, Tug-Argan Urban Health Centre,210043,Urban,Military,Urban Health Centre,Yes,8328,28.75756667,-13.08660333
Copperbelt,Ndola,Twapia UHC, Twapia Urban Health Centre,210045,Urban,GRZ,Urban Health Centre,Yes,3029,28.59013096,-12.99260644
Copperbelt,Ndola,Zambia Emory Research Project,Zambia Emory Research Project,210081,Urban,NGO,Health Post,Yes,,28.65141599,-12.95317867
Copperbelt,Ndola,Zesco UHC, Zesco Urban Health Centre,200047,Urban,GRZ,Urban Health Centre,Yes,,28.65756584,-12.96595923
Copperbelt,Ndola,Zfds Medical Centre UHC, ZFDS Medical Centre Urban Health Centre,210048,Urban,GRZ,Urban Health Centre,Yes,,28.63907167,-12.94246333
Copperbelt,Mufulira,Taung Up Clinic UHC,Taung Up Clinic UHC,209031,Urban,Military,Urban Health Centre,,,32.58801,-13.5495197
Copperbelt,Ndola,Commando District Hospital,Commando District Hospital,210033,Peri-Urban,Military,Level 1 Hospital District,,,32.56347656,-12.64033831
Copperbelt,Ndola,KalewaBarracks Provincial Hospital,KalewaBarracks Provincial Hospital,210031,Urban,Military,Level 2 Hospital Provincial,,,28.45458984,-14.3069695
Copperbelt,Ndola,Tug Argan UHC,Tug Argan UHC,210043,Peri-Urban,Military,Urban Health Centre,,,30.41015625,-13.38961959
Copperbelt,Kitwe,Mawlaick(ZCCFKitweCamp)Clinic UHC,Mawlaick(ZCCFKitweCamp)Clinic UHC,204028,Urban,Military,Urban Health Centre,,,28.27880859,-14.3069695
Eastern,Chadiza,Bwanunkha RHC, Bwanunkha Rural Health Centre,301010,Rural,GRZ,Rural Health Centre,Yes,7384,32.57665879,-13.93413699
Eastern,Chadiza,Chadiza District Hospital, Chadiza District Hospital,301001,Peri-Urban,GRZ,Level 1 Hospital District,Yes,,32.42161449,-14.06219561
Eastern,Chadiza,Chadiza UHC, Chadiza Rural Health Centre,301011,Peri-Urban,GRZ,Urban Health Centre,Yes,9816,32.47843285,-13.9605166
Eastern,Chadiza,Chamandala HP , Chamandala Health Post,301034,Rural,GRZ,Health Post,Yes,3924,32.38524762,-14.19683498
Eastern,Chadiza,Chanida HP,Chanida Health Post,301035,Rural,GRZ,Health Post,No,,32.35030757,-14.29901763
Eastern,Chadiza,Chanida RHC, Chanida Rural Health Centre,301012,Rural,GRZ,Rural Health Centre,Yes,4444,32.33205202,-14.24854599
Eastern,Chadiza,Chanjowe HP, Chanjowe Health Post,301022,Rural,GRZ,Rural Health Centre,Yes,5900,32.429564,-14.01684856
Eastern,Chadiza,Chilenga HP, Chilenga Health Post,311020,Rural,GRZ,Health Post,Yes,4320,32.36836823,-14.11692008
Eastern,Chadiza,John Rural Heath Centre, John Rural Health Centre,301025,Rural,GRZ,Rural Health Centre,Yes,5094,32.4783529,-13.96030003
Eastern,Chadiza,Kabvumo HP , Kabvumo Health Post,301028,Rural,GRZ,Health Post,Yes,2901,32.47145322,-14.17362762
Eastern,Chadiza,Kapirimpika HP, Kapirimphika Health Post,301030,Rural,GRZ,Health Post,Yes,2409,32.41713689,-14.27678031
Eastern,Chadiza,Madzaela HP, Madzaela Health Post,301021,Rural,GRZ,Health Post,Yes,5727,32.3648281,-13.95709207
Eastern,Chadiza,Miti RHC, Miti Rural Health Centre,301014,Rural,GRZ,Rural Health Centre,Yes,10114,32.62629222,-14.08735636
Eastern,Chadiza,Mkumbuzi RHC, Mkumbuzi Rural Health Centre,301020,Rural,GRZ,Rural Health Centre,Yes,3734,32.5070323,-14.22112665
Eastern,Chadiza,Msokosela HP,Msokosela Health Post,301032,Rural,GRZ,Health Post,No,,32.55928587,-14.0370719
Eastern,Chadiza,Mtaya HP, Mtaya Health Post,301029,Rural,GRZ,Health Post,Yes,3759,32.65510312,-14.01561369
Eastern,Chadiza,Naviruli HP, Naviruli Health post,301033,Rural,GRZ,Health Post,Yes,3000,32.32043386,-14.11367635
Eastern,Chadiza,Nsadzu RHC, Nsadzu Rural Health Centre,301015,Rural,GRZ,Rural Health Centre,Yes,6851,32.3390548,-14.07009852
Eastern,Chadiza,Sinalo HP , Sinalo Health Post,301023,Rural,GRZ,Health Post,Yes,2125,32.33221289,-14.24861399
Eastern,Chadiza,Tafelansoni RHC, Tafelansoni Rural Health Centre,301017,Rural,GRZ,Rural Health Centre,Yes,4665,32.43186057,-14.21630486
Eastern,Chadiza,Welele HP,Welele Health Post,301036,Rural,GRZ,Health Post,No,,32.63766546,-14.15513759
Eastern,Chadiza,Zemba RHC, Zemba Rural Health Centre,301018,Rural,GRZ,Rural Health Centre,Yes,9222,32.33912861,-14.07035604
Eastern,Chadiza,Zingalume HP, Zingalume Health Post,301031,Rural,GRZ,Health Post,Yes,2955,32.62618685,-14.08734766
Eastern,Chipata,Chakoloma HP, Chakoloma Health Post,303010166,Rural,GRZ,Health Post,Yes,3562,32.83396544,-13.1045146
Eastern,Chipata,Chamoto HP, Chamoto Health Post,303010162,Rural,GRZ,Health Post,Yes,4537,32.61901023,-13.35834665
Eastern,Chipata,Champhande RHC, Champhande Rural Health Centre,303040110,Rural,GRZ,Rural Health Centre,Yes,9791,32.52980322,-13.87542
Eastern,Chipata,Chanyumbu HP, Chanyumbu Health Post,303010164,Rural,GRZ,Health Post,Yes,5000,32.5675289,-13.26811514
Eastern,Chipata,Chikando RHC, Chikando Rural Health Centre,311011,Rural,GRZ,Rural Health Centre,Yes,9547,32.46538789,-13.84216249
Eastern,Chipata,Chikungu HP, Chikungu Health Post,303030155,Rural,GRZ,Health Post,Yes,4105,32.25694397,-13.76499941
Eastern,Chipata,Chinjala HP, Chinjala Health Post,303020161,Rural,GRZ,Health Post,Yes,6875,32.48404553,-13.63555726
Eastern,Chipata,Chinunda RHC, Chinunda Rural Health Centre,303010112,Rural,GRZ,Rural Health Centre,Yes,12990,32.65405852,-13.33495334
Eastern,Chipata,Chinyaku HP, Chinyaku Health Post,303040150,Rural,GRZ,Health Post,Yes,4105,32.56393395,-13.72178707
Eastern,Chipata,Chipangali RHC, Chipangali Rural Health Centre,303010113,Rural,GRZ,Rural Health Centre,Yes,8565,32.81561863,-13.24895591
Eastern,Chipata,Chiparamba RHC, Chiparamba Rural Health Centre,303010114,Rural,GRZ,Rural Health Centre,Yes,10683,32.48110794,-13.56980947
Eastern,Chipata,Chipata Central Hospital, Chipata Central Hospital,303010199,Urban,GRZ,Level 3 Hospital Tertiary,Yes,,32.63827591,-13.6419479
Eastern,Chipata,Chipata District Hospital, Chipata District Hospital,303020001,Urban,GRZ,Level 1 Hospital District,Yes,,32.58392338,-13.64999633
Eastern,Chipata,Chipata HAHC, Chipata Hospital Affiliated Health Centre,303020131,Urban,GRZ,Urban Health Centre,Yes,10139,32.63946933,-13.64096889
Eastern,Chipata,Chipungo RHC, Chipungo Rural Health Centre,303040115,Rural,GRZ,Health Post,Yes,6153,32.48713461,-13.76145544
Eastern,Chipata,Chiswa HP, Chiswa Health Post,303040154,Rural,GRZ,Health Post,Yes,5447,32.30491262,-13.91564122
Eastern,Chipata,Chizenje RHC, Chizenje Rural Health Centre,303030140,Rural,GRZ,Rural Health Centre,Yes,14321,32.30755325,-13.62882797
Eastern,Chipata,Dambwe HP,Dambwe Health Post,303020168,Rural,GRZ,Health Post,Yes,3882,32.80138046,-13.69375477
Eastern,Chipata,Dwankhozi RHC, Dwankhozi Rural Health Centre,303058,Rural,GRZ,Health Post,Yes,4360,32.89640023,-13.25215879
Eastern,Chipata,Feni HP, Feni Health Post,303040165,Rural,GRZ,Health Post,Yes,3225,32.74302793,-13.78492869
Eastern,Chipata,Jerusalem RHC, Jerusalem Rural Health Centre,303040116,Rural,GRZ,Rural Health Centre,Yes,10312,32.61260641,-13.84982521
Eastern,Chipata,Kadama HP, Kadama Health Post,303030151,Rural,GRZ,Health Post,Yes,8380,32.19143699,-13.71613468
Eastern,Chipata,Kamulaza RHC, Kamulaza Rural Health Centre,303030117,Rural,GRZ,Rural Health Centre,Yes,10025,32.3758581,-13.83758354
Eastern,Chipata,Kapata UHC, Kapata Urban Health Centre,303020197,Urban,GRZ,Urban Health Centre,Yes,29437,32.6423,-13.6247
Eastern,Chipata,Kasenengwa RHC, Kasenengwa Rural Health Centre,303030119,Rural,GRZ,Rural Health Centre,Yes,10137,32.32256178,-13.71766831
Eastern,Chipata,Kasenga RHC, Kasenga Rural Health Centre,303042,Rural,GRZ,Rural Health Centre,Yes,7073,32.80721769,-13.41795896
Eastern,Chipata,Katambo HP, Katambo Health Post,303040159,Rural,GRZ,Health Post,Yes,4070,32.79744464,-13.87595159
Eastern,Chipata,Katandala RHC, Katandala Rural Health Centre,303040120,Rural,GRZ,Rural Health Centre,Yes,6480,32.74715459,-13.71821658
Eastern,Chipata,Katondo HP, Katondo Health Post,303030139,Rural,GRZ,Health Post,Yes,5086,32.37604957,-13.63752217
Eastern,Chipata,Kayeka HP, Kayeka Health Post,303040138,Rural,GRZ,Health Post,Yes,4391,32.67706471,-13.75018029
Eastern,Chipata,Khoza HP,Khoza Health Post,303030198,Rural,GRZ,Health Post,Yes,,32.22535583,-13.6604645
Eastern,Chipata,Kwenje RHC, Kwenje Rural Health Centre,303030121,Rural,GRZ,Rural Health Centre,Yes,11591,32.23551893,-13.8299476
Eastern,Chipata,Lunkwakwa UHC, Lunkwakwa Urban Health Centre,311013,Rural,GRZ,Urban Health Centre,Yes,7310,32.61758711,-13.59786659
Eastern,Chipata,Madziatuwa RHC, Madziatuwa Rural Health Centre,303010143,Rural,GRZ,Rural Health Centre,Yes,5023,32.69763613,-13.08621699
Eastern,Chipata,Madzimawe RHC, Madzimawe Rural Health Centre,303010148,Rural,GRZ,Rural Health Centre,Yes,11374,32.41160167,-13.7108647
Eastern,Chipata,Madzimoyo RHC, Madzimoyo Rural Health Centre,303020124,Rural,GRZ,Rural Health Centre,Yes,4371,32.50232782,-13.69954844
Eastern,Chipata,Mafuta RHC, Mafuta Rural Health Centre,303010146,Rural,GRZ,Rural Health Centre,Yes,5111,32.73093785,-13.37183489
Eastern,Chipata,Magwero RHC, Magwero Rural Health Centre,303020125,Rural,GRZ,Rural Health Centre,Yes,5337,32.78097027,-13.65903786
Eastern,Chipata,Makungwa HP, Makungwa Health Post,303040152,Rural,GRZ,Health Post,Yes,,32.41609368,-13.79773296
Eastern,Chipata,Makwe HP, Makwe Health Post,303040144,Rural,GRZ,Health Post,Yes,5337,32.65381927,-13.80931305
Eastern,Chipata,Mbenjele HP, Mbenjele Health Post,303010153,Rural,GRZ,Health Post,Yes,9001,32.48235969,-13.36671009
Eastern,Chipata,Mchini HP, Mchini Health Post,303020147,Peri-Urban,GRZ,Health Post,Yes,15370,32.6553237,-13.66135867
Eastern,Chipata,Mkanda RHC, Mkanda Rural Health Centre,303026,Rural,GRZ,Rural Health Centre,Yes,9199,32.80586994,-13.47217804
Eastern,Chipata,Mlanga HP, Mlanga Health Post,303040149,Rural,GRZ,Health Post,Yes,2146,32.70987589,-13.96445055
Eastern,Chipata,MNoro RHC, MNoro Rural Health Centre,303010127,Rural,GRZ,Rural Health Centre,Yes,112217,32.64685486,-13.52566768
Eastern,Chipata,Mnukwa RHC, Mnukwa Rural Health Centre,303010145,Rural,GRZ,Rural Health Centre,Yes,6356,32.60501774,-13.41867273
Eastern,Chipata,Msekera RHC, Msekera Rural Health Centre,303020128,Rural,GRZ,Rural Health Centre,Yes,6849,32.56359621,-13.6445627
Eastern,Chipata,Mshawa RHC, Mshawa Rural Health Centre,303010129,Rural,GRZ,Rural Health Centre,Yes,10221,32.71586384,-13.48857001
Eastern,Chipata,Muzeyi RHC, Muzeyi Rural Health Centre,301010136,Rural,Faith Based,Rural Health Centre,Yes,28764,32.44930923,-13.50103134
Eastern,Chipata,Mwami  HAHC, Mwami Hospital Affiliated Health Centre,303040198,Rural,Faith Based,Rural Health Centre,Yes,9481,32.76485052,-13.80793912
Eastern,Chipata,Mwami Mission Hospital, Mwami Mission Hospital,303040002,Rural,Faith Based,Level 1 Hospital District,Yes,,32.76494181,-13.8079739
Eastern,Chipata,Mwasauka HP, Mwasauka Health Post,303040156,Rural,GRZ,Health Post,Yes,3500,32.54681766,-13.83858511
Eastern,Chipata,Mwita HP, Mwita Health Post,303010160,Rural,GRZ,Health Post,Yes,6203,32.80385454,-13.28438735
Eastern,Chipata,Namseche RHC, Namseche Rural Health Centre,303020130,Urban,GRZ,Urban Health Centre,Yes,16549,32.64880978,-13.67520571
Eastern,Chipata,Rukuzye RHC, Rukuzye Rural Health Centre,303010133,Rural,GRZ,Rural Health Centre,Yes,8452,32.81376162,-13.35486017
Eastern,Chipata,Samuel RHC, Samuel Rural Health Centre,303030132,Rural,GRZ,Rural Health Centre,Yes,8074,32.12895988,-13.75578347
Eastern,Chipata,St. Benedict RHC, St Benedict Rural Health Centre,303040157,Rural,GRZ,Health Post,Yes,3868,32.6283354,-13.77661034
Eastern,Chipata,Tamanda RHC, Tamanda Rural Health Centre,303010134,Rural,GRZ,Rural Health Centre,Yes,9938,32.88239029,-13.44047096
Eastern,Chipata,Vizenge RHC, Vizenge Rural Health Centre,303035,Rural,GRZ,Rural Health Centre,Yes,10024,32.88237323,-13.30951593
Eastern,Chipata,Walela HP, Walela Health Post,303010167,Rural,GRZ,Urban Health Centre,Yes,17533,32.62467678,-13.61741197
Eastern,Katete,Bethasida UHC,Bethasida UHC,304090,Urban,Private,Urban Health Centre,Yes,26715,32.0494222,-14.06044508
Eastern,Katete,Chibolya HP, Chibolya Health Post,304035,Urban,GRZ,Urban Health Centre,Yes,33150,32.04776605,-14.06637195
Eastern,Katete,Chimtende RHC, Chimtende Rural Health Centre,304010,Rural,GRZ,Rural Health Centre,Yes,13105,31.89181872,-13.92925555
Eastern,Katete,Chindwale HP, Chindwale Health Post,304025,Rural,GRZ,Rural Health Centre,Yes,4798,32.02136703,-14.30196779
Eastern,Katete,Chinkhombe RHC, Chinkhombe Rural Health Centre,3040273,Rural,GRZ,Rural Health Centre,Yes,4104,31.97670552,-13.93187772
Eastern,Katete,Kafumbwe RHC, Kafumbwe Rural Health Centre,304011,Rural,GRZ,Rural Health Centre,Yes,23000,32.23773281,-14.21684344
Eastern,Katete,Kafunkha HP, Kafunkha Health Post,304033,Rural,GRZ,Health Post,Yes,8829,31.94832445,-14.08686642
Eastern,Katete,Kagoro RHC, Kagoro Rural Health Centre,304012,Rural,GRZ,Rural Health Centre,Yes,16936,32.07140603,-14.24342775
Eastern,Katete,Kakula HP, Kakula Health Post,304026,Rural,GRZ,Health Post,Yes,5622,32.07365392,-14.35021915
Eastern,Katete,Kalimeta HP,Kalimeta Health Post,304042,Rural,GRZ,Health Post,Yes,,32.1592758,-14.08304371
Eastern,Katete,Kamiza RHC, Kamiza Rural Health Centre,304020,Rural,GRZ,Rural Health Centre,Yes,9136,32.10578325,-13.83956015
Eastern,Katete,Kamphambe RHC, Kamphambe Rural Health Centre,304032,Rural,GRZ,Rural Health Centre,Yes,5390,32.15854095,-14.02322117
Eastern,Katete,Katete Boma Health Centre, Katete Boma Health Centre,304014,Peri-Urban,GRZ,Urban Health Centre,Yes,15275,32.06454012,-14.09112773
Eastern,Katete,Katiula HP, Katiula Health Post,304037,Rural,GRZ,Rural Health Centre,Yes,,32.25779275,-14.10692032
Eastern,Katete,Kawaza HP,Kawaza Health Post,304044,Rural,GRZ,Health Post,No,,32.16433793,-14.25626292
Eastern,Katete,Kwenje HP, Kwenje Health Post,304045,Rural,GRZ,Health Post,No,,31.84877342,-14.0285661
Eastern,Katete,Lukweta HP, Lukweta Health Post,304036,Rural,GRZ,Health Post,Yes,5253,31.93226119,-13.84639441
Eastern,Katete,Lunga HP, Lunga Health Post,304040,Rural,GRZ,Health Post,Yes,3329,32.21234037,-14.29769284
Eastern,Katete,Lupando HP,Lupando Health Post,304046,Rural,GRZ,Health Post,No,,31.92151867,-14.11731931
Eastern,Katete,Magobo HP,Magobo Health Post,304047,Rural,GRZ,Health Post,No,,32.02570116,-13.78250945
Eastern,Katete,Makwenda HP, Makwenda Health Post,304038,Rural,GRZ,Health Post,Yes,4863,31.91500333,-14.00684744
Eastern,Katete,Matunga HP, Matunga Health Post,304041,Rural,GRZ,Health Post,Yes,2580,32.15475554,-13.84245909
Eastern,Katete,Mbinga HP, Mbinga Health Post,304034,Rural,GRZ,Health Post,Yes,7129,32.14479034,-14.14532687
Eastern,Katete,Mindola RHC, Mindola Rural Health Centre,304015,Rural,GRZ,Rural Health Centre,Yes,10574,32.14198912,-14.17616686
Eastern,Katete,Mphangwe HP, Mphangwe Health Post,304016,Rural,GRZ,Health Post,Yes,9022,32.06420962,-14.04114968
Eastern,Katete,Mtetezi Zambia National Service RHC, Mtetezi Zambia National Service Rural Health Centre,304013,Rural,Military,Rural Health Centre,Yes,7975,32.15611298,-13.95432013
Eastern,Katete,Mutipa HP,Mutipa Health Post,304048,Rural,GRZ,Health Post,No,,32.25670818,-14.28372697
Eastern,Katete,Muzime HP,Muzime Health Post,304091,Rural,GRZ,Health Post,No,,32.00748164,-14.18429408
Eastern,Katete,Mwandafisi HP,Mwandafisi Health Post,304043,Rural,GRZ,Health Post,Yes,3227,32.22787444,-14.05307236
Eastern,Katete,Mwaziputa HP,Mwaziputa Health Post,304049,Rural,GRZ,Health Post,No,,32.11619351,-13.99756035
Eastern,Katete,Mzunza HP, Mzunza Health Post,304039,Rural,GRZ,Health Post,Yes,1906,31.98135133,-13.87646762
Eastern,Katete,Nyembe RHC, Nyembe Rural Health Centre,304022,Rural,GRZ,Rural Health Centre,Yes,5564,31.95432998,-14.03243797
Eastern,Katete,St Francis General Hospital, St Francis General Hospital,304050,Urban,Faith Based,Level 1 Hospital District,Yes,,32.01460952,-14.06562985
Eastern,Katete,Umodzi HP,Umodzi Health Post,304051,Rural,GRZ,Health Post,No,,32.22275927,-13.98169516
Eastern,Katete,Undi RHC, Undi Rural Health Centre,304023,Rural,GRZ,Rural Health Centre,Yes,8006,32.05591509,-13.99853298
Eastern,Katete,Vulamkoko RHC, Vulamkoko Rural Health Centre,304019,Rural,GRZ,Rural Health Centre,Yes,15254,31.8511584,-14.10499511
Eastern,Lundazi,Boyole  HP, Boyole Health Post,305056,Rural,GRZ,Health Post,Yes,3099,33.08220414,-12.1131222
Eastern,Lundazi,Chanyalubwe HP, Chanyalubwe Health Post,305049,Rural,GRZ,Health Post,Yes,,32.91739488,-12.43305668
Eastern,Lundazi,Chasefu RHC, Chasefu Rural Health Centre,305017,Rural,GRZ,Rural Health Centre,Yes,5866,33.09215228,-11.920213
Eastern,Lundazi,Chijemu HP, Chijemu Health Post,305033,Rural,GRZ,Health Post,Yes,4438,33.24021282,-12.31593136
Eastern,Lundazi,Chikomeni RHC, Chikomeni Rural Health Centre,305026,Rural,GRZ,Rural Health Centre,Yes,7943,32.87486977,-12.69110074
Eastern,Lundazi,Chitungulu RHC, Chitungulu Rural Health Centre,305028,Rural,GRZ,Rural Health Centre,Yes,9558,32.28734834,-12.42419596
Eastern,Lundazi,Chiwe  HP,Chiwe  Health Post,305090,Rural,GRZ,Health Post,No,,33.31365589,-12.29711608
Eastern,Lundazi,Egichikeni RHC, Egichikeni Rural Health Centre,305045,Rural,GRZ,Rural Health Centre,Yes,6006,33.16436489,-11.95925171
Eastern,Lundazi,Hoya HP, Hoya Health Post,305042,Rural,GRZ,Health Post,Yes,4283,33.16594128,-12.10257873
Eastern,Lundazi,Kakumba HP, Kakumba Health Post,305054,Rural,GRZ,Health Post,Yes,7035,33.15679383,-12.3911548
Eastern,Lundazi,Kamilenje HP, Kamilenje Health Post,305048,Rural,GRZ,Health Post,Yes,4444,33.40457767,-12.35677205
Eastern,Lundazi,Kamsaro HP, Kamsaro Health Post,305034,Rural,GRZ,Health Post,Yes,5701,33.03137042,-12.35184068
Eastern,Lundazi,Kanyanga RHC, Kanyanga Rural Health Centre,305012,Rural,Faith Based,Rural Health Centre,Yes,13697,33.11966001,-12.0024802
Eastern,Lundazi,Kapichila RHC, Kapichila Rural Health Centre,305023,Rural,GRZ,Rural Health Centre,Yes,10931,33.27972658,-12.37746936
Eastern,Lundazi,Kapongolo HP, Kapongolo Health Post,305055,Rural,GRZ,Health Post,Yes,5910,32.96304138,-12.48252542
Eastern,Lundazi,Kataba HP,Kataba Health Post,305092,Rural,GRZ,Health Post,No,1215,32.4111898,-12.4431291
Eastern,Lundazi,Katube HP, Katube Health Post,305051,Rural,GRZ,Health Post,Yes,5706,32.92243756,-12.55784614
Eastern,Lundazi,Kazembe RHC, Kazembe Rural Health Centre,305029,Rural,GRZ,Rural Health Centre,Yes,7024,32.56372643,-12.17520759
Eastern,Lundazi,Kazonde HP,Kazonde Health Post,305093,Rural,GRZ,Health Post,No,,32.97799084,-12.61166943
Eastern,Lundazi,Khuli-Khuli HP, Khuli-khuli Health Post,305050,Rural,GRZ,Health Post,Yes,4561,33.01093114,-11.92144086
Eastern,Lundazi,Lukwizizi HP, Lukwizizi Health Post,311012,Rural,GRZ,Health Post,Yes,4958,32.99010588,-12.23865667
Eastern,Lundazi,Lumezi HAHC, Lumezi Hospital Affiliated Health Centre,305002,Rural,GRZ,Urban Health Centre,Yes,27360,33.03753128,-12.54152913
Eastern,Lundazi,Lumezi Mission Hospital, Lumezi Mission Hospital,305057,Rural,Faith Based,Level 1 Hospital District,Yes,,33.03762143,-12.54137476
Eastern,Lundazi,Lumimba HP ,Lumimba Health Post ,305094,Rural,GRZ,Health Post,Yes,,32.36187427,-12.43843292
Eastern,Lundazi,Lundazi District Hospital, Lundazi Urban Health Centre,305099,Urban,GRZ,Urban Health Centre,Yes,43154,33.17769626,-12.29942365
Eastern,Lundazi,Lundazi District Hospital, Lundazi District Hospital,305001,Urban,GRZ,Level 1 Hospital District,Yes,263713,33.16932874,-12.29353257
Eastern,Lundazi,Lunzi RHC, Lunzi Rural Health Centre,311015,Rural,GRZ,Rural Health Centre,Yes,8962,33.23123848,-11.69572057
Eastern,Lundazi,Lusuntha RHC, Lusuntha Rural Health Centre,311016,Rural,GRZ,Rural Health Centre,Yes,10817,33.3080833,-12.2450493
Eastern,Lundazi,Malandula RHC, Malandula Rural Health Centre,305016,Rural,GRZ,Rural Health Centre,Yes,9603,33.16359258,-11.83814821
Eastern,Lundazi,Mankhaka HP, Mankhaka Health Post,305037,Rural,GRZ,Health Post,Yes,5722,33.36445678,-12.48907884
Eastern,Lundazi,Manyi HP, Manyi Health Post,305052,Rural,GRZ,Health Post,Yes,1506,33.14041528,-12.17052093
Eastern,Lundazi,Mchereka HP, Mchereka Health Post,305035,Rural,GRZ,Health Post,Yes,8967,33.10408627,-12.26951414
Eastern,Lundazi,Mkomba HP, Mkomba Health Post,305044,Rural,GRZ,Rural Health Centre,Yes,5595,33.21537782,-12.41908556
Eastern,Lundazi,Mtwalo RHC, Mtwalo Rural Health Centre,305015,Rural,GRZ,Rural Health Centre,Yes,11797,33.25508533,-11.88462113
Eastern,Lundazi,Munyukwa RHC, Munyukwa Rural Health Centre,305013,Rural,GRZ,Rural Health Centre,Yes,17221,32.98346397,-12.03569961
Eastern,Lundazi,Mwase Lundazi RHC, Mwase Lundazi Rural Health Centre,305011,Rural,GRZ,Rural Health Centre,Yes,22422,33.3399606,-12.41135631
Eastern,Lundazi,Mwase-Mphangwe Old RHC, Mwase-Mphangwe Old Rural Health Centre,305030,Rural,GRZ,Rural Health Centre,Yes,12374,32.94128393,-13.03105949
Eastern,Lundazi,Mwase-Mphangwe Schemes RHC, Mwase-Mphangwe Schemes Rural Health Centre,305031,Rural,GRZ,Rural Health Centre,Yes,5438,32.90312511,-12.89534035
Eastern,Lundazi,Mwimba HP, Mwimba Health Post,305036,Rural,GRZ,Health Post,Yes,4436,32.94067181,-12.65753708
Eastern,Lundazi,Ndaiwala RHC, Ndaiwala Rural Health Centre,305039,Rural,GRZ,Rural Health Centre,Yes,5306,32.93375513,-12.79869485
Eastern,Lundazi,New Lundazi District Hospital,New Lundazi District Hospital,3050101,Peri-Urban,GRZ,Level 1 Hospital District,Yes,,33.1652325,-12.33700887
Eastern,Lundazi,Njoka HP, Njoka Health Post,3050102,Rural,GRZ,Health Post,Yes,,32.79417504,-12.20417356
Eastern,Lundazi,Njoka HP, Ng'onga Rural Health Centre,305025,Rural,GRZ,Rural Health Centre,Yes,6770,33.11412579,-12.528766
Eastern,Lundazi,Nkhanga RHC, Nkhanga Rural Health Centre,305041,Rural,GRZ,Rural Health Centre,Yes,10362,33.04048497,-12.1542175
Eastern,Lundazi,Nkhanyu HP, Nkhanyu Health Post,305046,Rural,GRZ,Health Post,Yes,6416,32.94480773,-13.18180845
Eastern,Lundazi,Nthitimila HP, Nthitimila Health Post,305053,Rural,GRZ,Health Post,Yes,5708,33.21316194,-12.55046139
Eastern,Lundazi,Nyangwe RHC, Nyangwe Rural Health Centre,305022,Rural,GRZ,Rural Health Centre,Yes,7696,33.47167505,-12.37793901
Eastern,Lundazi,Phikamalaza RHC, Phikamalaza Rural Health Centre,305020,Rural,GRZ,Rural Health Centre,Yes,6354,33.2243692,-12.20145116
Eastern,Lundazi,Sikatengwa HP,Sikatengwa Health Post,3050103,Rural,GRZ,Health Post,Yes,,33.07231149,-12.48522416
Eastern,Lundazi,Umi HP, Umi Health Post,305047,Rural,GRZ,Health Post,Yes,5222,33.2613767,-12.5410156
Eastern,Lundazi,Zasp HP, Zasp Health Post,305019,Rural,GRZ,Health Post,Yes,5533,33.23112239,-12.15636771
Eastern,Lundazi,Zokwe HP, Zokwe Health Post,305043,Rural,GRZ,Health Post,Yes,2285,32.27584309,-12.42139947
Eastern,Lundazi,Zumwanda RHC, Zumwanda Rural Health Centre,305024,Rural,GRZ,Rural Health Centre,Yes,6925,33.05092428,-12.42561245
